[
    {
        "iata": "AAA",
        "name": "Anaa Airport",
        "city": "Anaa",
        "subdivision": "Iles-Tuamotu-Gambier",
        "countryCode": "PF",
        "latitude": -17.35260009765625,
        "longitude": -145.50999450683594,
        "type": "CIVIL",
        "zoneId": "Pacific/Tahiti"
    },
    {
        "iata": "AAB",
        "name": "Arrabury Airport",
        "city": "Arrabury",
        "subdivision": "Queensland",
        "countryCode": "AU",
        "latitude": -26.700000762939453,
        "longitude": 141.0500030517578,
        "type": "CIVIL",
        "zoneId": "Australia/Brisbane"
    },
    {
        "iata": "AAC",
        "name": "El Arish International Airport",
        "city": "El Arish",
        "subdivision": "North Sinai",
        "countryCode": "EG",
        "latitude": 31.073299407958984,
        "longitude": 33.83580017089844,
        "type": "CIVIL",
        "zoneId": "Africa/Cairo"
    },
    {
        "iata": "AAE",
        "name": "Annaba Rabah Bitat Airport",
        "city": "Annabah",
        "subdivision": "Annaba",
        "countryCode": "DZ",
        "latitude": 36.822200775146484,
        "longitude": 7.809169769287109,
        "type": "CIVIL",
        "zoneId": "Africa/Algiers"
    },
    {
        "iata": "AAF",
        "name": "Apalachicola Regional-Cleve Randolph Field",
        "city": "Apalachicola",
        "subdivision": "Florida",
        "countryCode": "US",
        "latitude": 29.727550506591797,
        "longitude": -85.02738189697266,
        "type": "CIVIL",
        "zoneId": "America/New_York"
    },
    {
        "iata": "AAG",
        "name": "Arapoti Avelino Vieira Airport",
        "city": "Arapoti",
        "subdivision": "Paraná",
        "countryCode": "BR",
        "latitude": -24.103900909423828,
        "longitude": -49.789100646972656,
        "type": "CIVIL",
        "zoneId": "America/Sao_Paulo"
    },
    {
        "iata": "AAH",
        "name": "Aachen-Merzbruck Airport",
        "city": "Aachen",
        "subdivision": "Nordrhein-Westfalen",
        "countryCode": "DE",
        "latitude": 50.82305908203125,
        "longitude": 6.186389923095703,
        "type": "CIVIL",
        "zoneId": "Europe/Berlin"
    },
    {
        "iata": "AAI",
        "name": "Arraias Airport",
        "city": "Arraias",
        "subdivision": "Tocantins",
        "countryCode": "BR",
        "latitude": -13.023889541625977,
        "longitude": -46.88555908203125,
        "type": "CIVIL",
        "zoneId": "America/Araguaina"
    },
    {
        "iata": "AAJ",
        "name": "Cayana Airstrip",
        "city": "Awaradam",
        "subdivision": "Sipaliwini",
        "countryCode": "SR",
        "latitude": 3.8986799716949463,
        "longitude": -55.577911376953125,
        "type": "CIVIL",
        "zoneId": "America/Paramaribo"
    },
    {
        "iata": "AAK",
        "name": "Aranuka Airport",
        "city": "Buariki",
        "subdivision": "Gilbert-Islands",
        "countryCode": "KI",
        "latitude": 0.1852799952030182,
        "longitude": 173.63699340820312,
        "type": "CIVIL",
        "zoneId": "Pacific/Tarawa"
    },
    {
        "iata": "AAL",
        "name": "Aalborg Airport",
        "city": "Aalborg",
        "subdivision": "North Denmark",
        "countryCode": "DK",
        "latitude": 57.09275817871094,
        "longitude": 9.84924030303955,
        "type": "CIVIL",
        "zoneId": "Europe/Copenhagen"
    },
    {
        "iata": "AAM",
        "name": "Mala Mala Airport",
        "city": "Malamala",
        "subdivision": "Mpumalanga",
        "countryCode": "ZA",
        "latitude": -24.818099975585938,
        "longitude": 31.544599533081055,
        "type": "CIVIL",
        "zoneId": "Africa/Johannesburg"
    },
    {
        "iata": "AAN",
        "name": "Al Ain International Airport",
        "city": "Al Ain",
        "subdivision": "Abu Dhabi",
        "countryCode": "AE",
        "latitude": 24.261699676513672,
        "longitude": 55.60919952392578,
        "type": "CIVIL",
        "zoneId": "Asia/Dubai"
    },
    {
        "iata": "AAO",
        "name": "Anaco Airport",
        "city": "Anaco",
        "subdivision": "Anzoategui",
        "countryCode": "VE",
        "latitude": 9.430230140686035,
        "longitude": -64.47073364257812,
        "type": "CIVIL",
        "zoneId": "America/Caracas"
    },
    {
        "iata": "AAP",
        "name": "Aji Pangeran Tumenggung Pranoto International Airport",
        "city": "Samarinda-Borneo Island",
        "subdivision": "East Kalimantan",
        "countryCode": "ID",
        "latitude": -0.37549999356269836,
        "longitude": 117.25132751464844,
        "type": "CIVIL",
        "zoneId": "Asia/Makassar"
    },
    {
        "iata": "AAQ",
        "name": "Anapa Vityazevo Airport",
        "city": "Anapa",
        "subdivision": "Krasnodarskiy",
        "countryCode": "RU",
        "latitude": 45.00210189819336,
        "longitude": 37.3473014831543,
        "type": "CIVIL",
        "zoneId": "Europe/Moscow"
    },
    {
        "iata": "AAR",
        "name": "Aarhus Tirstrup Airport",
        "city": "Aarhus",
        "subdivision": "Central Jutland",
        "countryCode": "DK",
        "latitude": 56.29999923706055,
        "longitude": 10.619000434875488,
        "type": "CIVIL",
        "zoneId": "Europe/Copenhagen"
    },
    {
        "iata": "AAT",
        "name": "Altay Air Base",
        "city": "Altay",
        "subdivision": "Xinjiang",
        "countryCode": "CN",
        "latitude": 47.7498893737793,
        "longitude": 88.08580780029297,
        "type": "CIVIL",
        "zoneId": "Asia/Shanghai"
    },
    {
        "iata": "AAU",
        "name": "Asau Airport",
        "city": "Asau",
        "subdivision": "",
        "countryCode": "WS",
        "latitude": -13.505800247192383,
        "longitude": -172.6280059814453,
        "type": "CIVIL",
        "zoneId": "Pacific/Apia"
    },
    {
        "iata": "AAV",
        "name": "Allah Valley Airport",
        "city": "Surallah",
        "subdivision": "Soccsksargen",
        "countryCode": "PH",
        "latitude": 6.366819858551025,
        "longitude": 124.7509994506836,
        "type": "CIVIL",
        "zoneId": "Asia/Manila"
    },
    {
        "iata": "AAX",
        "name": "Araxa Airport",
        "city": "Araxa",
        "subdivision": "Minas Gerais",
        "countryCode": "BR",
        "latitude": -19.563199996948242,
        "longitude": -46.96039962768555,
        "type": "CIVIL",
        "zoneId": "America/Sao_Paulo"
    },
    {
        "iata": "AAY",
        "name": "Al Ghaidah International Airport",
        "city": "Al Ghaydah",
        "subdivision": "Al-Mahrah",
        "countryCode": "YE",
        "latitude": 16.191699981689453,
        "longitude": 52.17499923706055,
        "type": "CIVIL",
        "zoneId": "Asia/Aden"
    },
    {
        "iata": "AAZ",
        "name": "Quetzaltenango Airport",
        "city": "Quetzaltenango",
        "subdivision": "Quetzaltenango",
        "countryCode": "GT",
        "latitude": 14.865599632263184,
        "longitude": -91.50199890136719,
        "type": "CIVIL",
        "zoneId": "America/Guatemala"
    },
    {
        "iata": "ABA",
        "name": "Abakan Airport",
        "city": "Abakan",
        "subdivision": "Khakasiya",
        "countryCode": "RU",
        "latitude": 53.7400016784668,
        "longitude": 91.38500213623047,
        "type": "CIVIL",
        "zoneId": "Asia/Krasnoyarsk"
    },
    {
        "iata": "ABB",
        "name": "Asaba International Airport",
        "city": "Asaba",
        "subdivision": "Delta",
        "countryCode": "NG",
        "latitude": 6.203330039978027,
        "longitude": 6.6588897705078125,
        "type": "CIVIL",
        "zoneId": "Africa/Lagos"
    },
    {
        "iata": "ABC",
        "name": "Albacete-Los Llanos Airport",
        "city": "Albacete",
        "subdivision": "Castilla-La Mancha",
        "countryCode": "ES",
        "latitude": 38.94850158691406,
        "longitude": -1.8635200262069702,
        "type": "CIVIL",
        "zoneId": "Europe/Madrid"
    },
    {
        "iata": "ABD",
        "name": "Abadan Airport",
        "city": "Abadan",
        "subdivision": "Khuzestan",
        "countryCode": "IR",
        "latitude": 30.3710994720459,
        "longitude": 48.22829818725586,
        "type": "CIVIL",
        "zoneId": "Asia/Tehran"
    },
    {
        "iata": "ABE",
        "name": "Lehigh Valley International Airport",
        "city": "Allentown",
        "subdivision": "Pennsylvania",
        "countryCode": "US",
        "latitude": 40.65235900878906,
        "longitude": -75.4404067993164,
        "type": "CIVIL",
        "zoneId": "America/New_York"
    },
    {
        "iata": "ABF",
        "name": "Abaiang Airport",
        "city": "Abaiang",
        "subdivision": "Gilbert-Islands",
        "countryCode": "KI",
        "latitude": 1.798609972000122,
        "longitude": 173.04100036621094,
        "type": "CIVIL",
        "zoneId": "Pacific/Tarawa"
    },
    {
        "iata": "ABG",
        "name": "Abingdon Downs Airport",
        "city": "Abingdon Downs",
        "subdivision": "Queensland",
        "countryCode": "AU",
        "latitude": -17.61669921875,
        "longitude": 143.16700744628906,
        "type": "CIVIL",
        "zoneId": "Australia/Brisbane"
    },
    {
        "iata": "ABH",
        "name": "Alpha Airport",
        "city": "Alpha",
        "subdivision": "Queensland",
        "countryCode": "AU",
        "latitude": -23.646099090576172,
        "longitude": 146.58399963378906,
        "type": "CIVIL",
        "zoneId": "Australia/Brisbane"
    },
    {
        "iata": "ABI",
        "name": "Abilene Regional Airport",
        "city": "Abilene",
        "subdivision": "Texas",
        "countryCode": "US",
        "latitude": 32.41133117675781,
        "longitude": -99.68189239501953,
        "type": "CIVIL",
        "zoneId": "America/Chicago"
    },
    {
        "iata": "ABJ",
        "name": "Abidjan Felix Houphouet Boigny Airport",
        "city": "Abidjan",
        "subdivision": "Lagunes",
        "countryCode": "CI",
        "latitude": 5.261390209197998,
        "longitude": -3.9262900352478027,
        "type": "CIVIL",
        "zoneId": "Africa/Abidjan"
    },
    {
        "iata": "ABK",
        "name": "Kabri Dehar Airport",
        "city": "Kabri Dehar",
        "subdivision": "",
        "countryCode": "ET",
        "latitude": 6.734000205993652,
        "longitude": 44.25299835205078,
        "type": "CIVIL",
        "zoneId": "Africa/Addis_Ababa"
    },
    {
        "iata": "ABL",
        "name": "Ambler Airport",
        "city": "Ambler",
        "subdivision": "Alaska",
        "countryCode": "US",
        "latitude": 67.106201171875,
        "longitude": -157.85716247558594,
        "type": "CIVIL",
        "zoneId": "America/Anchorage"
    },
    {
        "iata": "ABM",
        "name": "Bamaga Injinoo Airport",
        "city": "",
        "subdivision": "Queensland",
        "countryCode": "AU",
        "latitude": -10.950799942016602,
        "longitude": 142.45899963378906,
        "type": "CIVIL",
        "zoneId": "Australia/Brisbane"
    },
    {
        "iata": "ABN",
        "name": "Albina Airport",
        "city": "Albina",
        "subdivision": "Marowijne",
        "countryCode": "SR",
        "latitude": 5.512720108032227,
        "longitude": -54.05009841918945,
        "type": "CIVIL",
        "zoneId": "America/Paramaribo"
    },
    {
        "iata": "ABQ",
        "name": "Albuquerque International Sunport Airport",
        "city": "Albuquerque",
        "subdivision": "New Mexico",
        "countryCode": "US",
        "latitude": 35.0389289855957,
        "longitude": -106.60826110839844,
        "type": "CIVIL",
        "zoneId": "America/Denver"
    },
    {
        "iata": "ABR",
        "name": "Aberdeen Regional Airport",
        "city": "Aberdeen",
        "subdivision": "South Dakota",
        "countryCode": "US",
        "latitude": 45.446800231933594,
        "longitude": -98.42243957519531,
        "type": "CIVIL",
        "zoneId": "America/Chicago"
    },
    {
        "iata": "ABS",
        "name": "Abu Simbel Airport",
        "city": "Abu Simbel",
        "subdivision": "Aswan",
        "countryCode": "EG",
        "latitude": 22.375999450683594,
        "longitude": 31.6117000579834,
        "type": "CIVIL",
        "zoneId": "Africa/Cairo"
    },
    {
        "iata": "ABT",
        "name": "Al Baha Airport",
        "city": "",
        "subdivision": "",
        "countryCode": "SA",
        "latitude": 20.296100616455078,
        "longitude": 41.634300231933594,
        "type": "CIVIL",
        "zoneId": "Asia/Riyadh"
    },
    {
        "iata": "ABU",
        "name": "Haliwen Airport",
        "city": "Atambua-Timor Island",
        "subdivision": "East Nusa Tenggara",
        "countryCode": "ID",
        "latitude": -9.073049545288086,
        "longitude": 124.90499877929688,
        "type": "CIVIL",
        "zoneId": "Asia/Makassar"
    },
    {
        "iata": "ABV",
        "name": "Nnamdi Azikiwe International Airport",
        "city": "Abuja",
        "subdivision": "FCT",
        "countryCode": "NG",
        "latitude": 9.006790161132812,
        "longitude": 7.263169765472412,
        "type": "CIVIL",
        "zoneId": "Africa/Lagos"
    },
    {
        "iata": "ABX",
        "name": "Albury Airport",
        "city": "Albury",
        "subdivision": "New South Wales",
        "countryCode": "AU",
        "latitude": -36.06779861450195,
        "longitude": 146.95799255371094,
        "type": "CIVIL",
        "zoneId": "Australia/Sydney"
    },
    {
        "iata": "ABY",
        "name": "Southwest Georgia Regional Airport",
        "city": "Albany",
        "subdivision": "Georgia",
        "countryCode": "US",
        "latitude": 31.53553009033203,
        "longitude": -84.19447326660156,
        "type": "CIVIL",
        "zoneId": "America/New_York"
    },
    {
        "iata": "ABZ",
        "name": "Aberdeen Dyce Airport",
        "city": "Aberdeen",
        "subdivision": "Scotland",
        "countryCode": "GB",
        "latitude": 57.201900482177734,
        "longitude": -2.197779893875122,
        "type": "CIVIL",
        "zoneId": "Europe/London"
    },
    {
        "iata": "ACA",
        "name": "General Juan N Alvarez International Airport",
        "city": "Acapulco",
        "subdivision": "Guerrero",
        "countryCode": "MX",
        "latitude": 16.757099151611328,
        "longitude": -99.75399780273438,
        "type": "CIVIL",
        "zoneId": "America/Mexico_City"
    },
    {
        "iata": "ACB",
        "name": "Antrim County Airport",
        "city": "Bellaire",
        "subdivision": "Michigan",
        "countryCode": "US",
        "latitude": 44.98857879638672,
        "longitude": -85.19834899902344,
        "type": "CIVIL",
        "zoneId": "America/Detroit"
    },
    {
        "iata": "ACC",
        "name": "Kotoka International Airport",
        "city": "Accra",
        "subdivision": "",
        "countryCode": "GH",
        "latitude": 5.605189800262451,
        "longitude": -0.16678999364376068,
        "type": "CIVIL",
        "zoneId": "Africa/Accra"
    },
    {
        "iata": "ACD",
        "name": "Alcides Fernandez Airport",
        "city": "Acandi",
        "subdivision": "Choco",
        "countryCode": "CO",
        "latitude": 8.516670227050781,
        "longitude": -77.30000305175781,
        "type": "CIVIL",
        "zoneId": "America/Bogota"
    },
    {
        "iata": "ACE",
        "name": "Lanzarote Airport",
        "city": "Lanzarote Island",
        "subdivision": "Canary-Islands",
        "countryCode": "ES",
        "latitude": 28.945499420166016,
        "longitude": -13.605199813842773,
        "type": "CIVIL",
        "zoneId": "Atlantic/Canary"
    },
    {
        "iata": "ACF",
        "name": "Brisbane Archerfield Airport",
        "city": "Brisbane",
        "subdivision": "Queensland",
        "countryCode": "AU",
        "latitude": -27.57029914855957,
        "longitude": 153.00799560546875,
        "type": "CIVIL",
        "zoneId": "Australia/Brisbane"
    },
    {
        "iata": "ACH",
        "name": "St Gallen Altenrhein Airport",
        "city": "Altenrhein",
        "subdivision": "Saint-Gallen",
        "countryCode": "CH",
        "latitude": 47.48500061035156,
        "longitude": 9.560770034790039,
        "type": "CIVIL",
        "zoneId": "Europe/Zurich"
    },
    {
        "iata": "ACI",
        "name": "Alderney Airport",
        "city": "Saint Anne",
        "subdivision": "Alderney",
        "countryCode": "GG",
        "latitude": 49.70610046386719,
        "longitude": -2.2147200107574463,
        "type": "CIVIL",
        "zoneId": "Europe/Guernsey"
    },
    {
        "iata": "ACJ",
        "name": "Anuradhapura Airport",
        "city": "Anuradhapura",
        "subdivision": "North Central Province",
        "countryCode": "LK",
        "latitude": 8.30148983001709,
        "longitude": 80.42790222167969,
        "type": "CIVIL",
        "zoneId": "Asia/Colombo"
    },
    {
        "iata": "ACK",
        "name": "Nantucket Memorial Airport",
        "city": "Nantucket",
        "subdivision": "Massachusetts",
        "countryCode": "US",
        "latitude": 41.29999923706055,
        "longitude": -70.0999984741211,
        "type": "CIVIL",
        "zoneId": "America/New_York"
    },
    {
        "iata": "ACN",
        "name": "Ciudad Acuna New International Airport",
        "city": "Ciudad Acuna",
        "subdivision": "Coahuila",
        "countryCode": "MX",
        "latitude": 29.33289909362793,
        "longitude": -101.0989990234375,
        "type": "CIVIL",
        "zoneId": "America/Mexico_City"
    },
    {
        "iata": "ACP",
        "name": "Sahand Airport",
        "city": "Maragheh",
        "subdivision": "East Azerbaijan",
        "countryCode": "IR",
        "latitude": 37.347999572753906,
        "longitude": 46.127899169921875,
        "type": "CIVIL",
        "zoneId": "Asia/Tehran"
    },
    {
        "iata": "ACR",
        "name": "Araracuara Airport",
        "city": "Araracuara",
        "subdivision": "Amazonas",
        "countryCode": "CO",
        "latitude": -0.583299994468689,
        "longitude": -72.4083023071289,
        "type": "CIVIL",
        "zoneId": "America/Bogota"
    },
    {
        "iata": "ACS",
        "name": "Achinsk Airport",
        "city": "Achinsk",
        "subdivision": "Krasnoyarskiy",
        "countryCode": "RU",
        "latitude": 56.2682991027832,
        "longitude": 90.57080078125,
        "type": "CIVIL",
        "zoneId": "Asia/Krasnoyarsk"
    },
    {
        "iata": "ACT",
        "name": "Waco Regional Airport",
        "city": "Waco",
        "subdivision": "Texas",
        "countryCode": "US",
        "latitude": 31.61219024658203,
        "longitude": -97.23030853271484,
        "type": "CIVIL",
        "zoneId": "America/Chicago"
    },
    {
        "iata": "ACV",
        "name": "California Redwood Coast-Humboldt County Airport",
        "city": "Arcata/Eureka",
        "subdivision": "California",
        "countryCode": "US",
        "latitude": 40.97782897949219,
        "longitude": -124.10846710205078,
        "type": "CIVIL",
        "zoneId": "America/Los_Angeles"
    },
    {
        "iata": "ACX",
        "name": "Xingyi Airport",
        "city": "Xingyi",
        "subdivision": "Guizhou",
        "countryCode": "CN",
        "latitude": 25.086389541625977,
        "longitude": 104.95944213867188,
        "type": "CIVIL",
        "zoneId": "Asia/Shanghai"
    },
    {
        "iata": "ACY",
        "name": "Atlantic City International Airport",
        "city": "Atlantic City",
        "subdivision": "New Jersey",
        "countryCode": "US",
        "latitude": 39.45758056640625,
        "longitude": -74.5771713256836,
        "type": "CIVIL",
        "zoneId": "America/New_York"
    },
    {
        "iata": "ACZ",
        "name": "Zabol Airport",
        "city": "",
        "subdivision": "Sistan-and-Baluchestan",
        "countryCode": "IR",
        "latitude": 31.09830093383789,
        "longitude": 61.54389953613281,
        "type": "CIVIL",
        "zoneId": "Asia/Tehran"
    },
    {
        "iata": "ADA",
        "name": "Adana Airport",
        "city": "Adana",
        "subdivision": "Adana",
        "countryCode": "TR",
        "latitude": 36.982200622558594,
        "longitude": 35.280399322509766,
        "type": "CIVIL",
        "zoneId": "Europe/Istanbul"
    },
    {
        "iata": "ADB",
        "name": "Adnan Menderes International Airport",
        "city": "Izmir",
        "subdivision": "Izmir",
        "countryCode": "TR",
        "latitude": 38.29240036010742,
        "longitude": 27.156999588012695,
        "type": "CIVIL",
        "zoneId": "Europe/Istanbul"
    },
    {
        "iata": "ADC",
        "name": "Andakombe Airport",
        "city": "Andekombe",
        "subdivision": "Gulf",
        "countryCode": "PG",
        "latitude": -7.1372199058532715,
        "longitude": 145.74472045898438,
        "type": "CIVIL",
        "zoneId": "Pacific/Port_Moresby"
    },
    {
        "iata": "ADD",
        "name": "Bole International Airport",
        "city": "Addis Ababa",
        "subdivision": "Addis-Ababa",
        "countryCode": "ET",
        "latitude": 8.977890014648438,
        "longitude": 38.79930114746094,
        "type": "CIVIL",
        "zoneId": "Africa/Addis_Ababa"
    },
    {
        "iata": "ADE",
        "name": "Aden International Airport",
        "city": "Aden",
        "subdivision": "Aden",
        "countryCode": "YE",
        "latitude": 12.829500198364258,
        "longitude": 45.02880096435547,
        "type": "CIVIL",
        "zoneId": "Asia/Aden"
    },
    {
        "iata": "ADF",
        "name": "Adiyaman Airport",
        "city": "Adiyaman",
        "subdivision": "Adiyaman",
        "countryCode": "TR",
        "latitude": 37.73139953613281,
        "longitude": 38.46889877319336,
        "type": "CIVIL",
        "zoneId": "Europe/Istanbul"
    },
    {
        "iata": "ADG",
        "name": "Lenawee County Airport",
        "city": "Adrian",
        "subdivision": "Michigan",
        "countryCode": "US",
        "latitude": 41.86764144897461,
        "longitude": -84.07730865478516,
        "type": "CIVIL",
        "zoneId": "America/Detroit"
    },
    {
        "iata": "ADH",
        "name": "Aldan Airport",
        "city": "Aldan",
        "subdivision": "Chukot",
        "countryCode": "RU",
        "latitude": 58.60279846191406,
        "longitude": 125.40899658203125,
        "type": "CIVIL",
        "zoneId": "Asia/Yakutsk"
    },
    {
        "iata": "ADI",
        "name": "Arandis Airport",
        "city": "Arandis",
        "subdivision": "",
        "countryCode": "NA",
        "latitude": -22.462200164794922,
        "longitude": 14.979999542236328,
        "type": "CIVIL",
        "zoneId": "Africa/Windhoek"
    },
    {
        "iata": "ADJ",
        "name": "Amman-Marka International Airport",
        "city": "Amman",
        "subdivision": "Amman",
        "countryCode": "JO",
        "latitude": 31.972700119018555,
        "longitude": 35.991600036621094,
        "type": "CIVIL",
        "zoneId": "Asia/Amman"
    },
    {
        "iata": "ADL",
        "name": "Adelaide International Airport",
        "city": "Adelaide",
        "subdivision": "South Australia",
        "countryCode": "AU",
        "latitude": -34.94499969482422,
        "longitude": 138.531005859375,
        "type": "CIVIL",
        "zoneId": "Australia/Adelaide"
    },
    {
        "iata": "ADM",
        "name": "Ardmore Municipal Airport",
        "city": "Ardmore",
        "subdivision": "Oklahoma",
        "countryCode": "US",
        "latitude": 34.303871154785156,
        "longitude": -97.02059936523438,
        "type": "CIVIL",
        "zoneId": "America/Chicago"
    },
    {
        "iata": "ADO",
        "name": "Andamooka Airport",
        "city": "",
        "subdivision": "South Australia",
        "countryCode": "AU",
        "latitude": -30.43829917907715,
        "longitude": 137.13699340820312,
        "type": "CIVIL",
        "zoneId": "Australia/Adelaide"
    },
    {
        "iata": "ADQ",
        "name": "Kodiak Airport",
        "city": "Kodiak",
        "subdivision": "Alaska",
        "countryCode": "US",
        "latitude": 57.74979019165039,
        "longitude": -152.4939422607422,
        "type": "CIVIL",
        "zoneId": "America/Anchorage"
    },
    {
        "iata": "ADR",
        "name": "Robert F Swinnie Airport",
        "city": "Andrews",
        "subdivision": "South Carolina",
        "countryCode": "US",
        "latitude": 33.451698303222656,
        "longitude": -79.52617645263672,
        "type": "CIVIL",
        "zoneId": "America/New_York"
    },
    {
        "iata": "ADS",
        "name": "Addison Airport",
        "city": "Dallas",
        "subdivision": "Texas",
        "countryCode": "US",
        "latitude": 32.96855926513672,
        "longitude": -96.83644104003906,
        "type": "CIVIL",
        "zoneId": "America/Chicago"
    },
    {
        "iata": "ADT",
        "name": "Ada Regional Airport",
        "city": "Ada",
        "subdivision": "Oklahoma",
        "countryCode": "US",
        "latitude": 34.80426025390625,
        "longitude": -96.67120361328125,
        "type": "CIVIL",
        "zoneId": "America/Chicago"
    },
    {
        "iata": "ADU",
        "name": "Ardabil Airport",
        "city": "Ardabil",
        "subdivision": "Ardabil",
        "countryCode": "IR",
        "latitude": 38.32569885253906,
        "longitude": 48.424400329589844,
        "type": "CIVIL",
        "zoneId": "Asia/Tehran"
    },
    {
        "iata": "ADY",
        "name": "Alldays Airport",
        "city": "Alldays",
        "subdivision": "Limpopo",
        "countryCode": "ZA",
        "latitude": -22.679000854492188,
        "longitude": 29.055500030517578,
        "type": "CIVIL",
        "zoneId": "Africa/Johannesburg"
    },
    {
        "iata": "ADZ",
        "name": "Gustavo Rojas Pinilla International Airport",
        "city": "San Andres",
        "subdivision": "San Andres y Providencia",
        "countryCode": "CO",
        "latitude": 12.583600044250488,
        "longitude": -81.71119689941406,
        "type": "CIVIL",
        "zoneId": "America/Bogota"
    },
    {
        "iata": "AEA",
        "name": "Abemama Atoll Airport",
        "city": "Abemama Atoll",
        "subdivision": "Gilbert-Islands",
        "countryCode": "KI",
        "latitude": 0.4908300042152405,
        "longitude": 173.82899475097656,
        "type": "CIVIL",
        "zoneId": "Pacific/Tarawa"
    },
    {
        "iata": "AEB",
        "name": "Tian Yang Air Base",
        "city": "Baise",
        "subdivision": "Guangxi",
        "countryCode": "CN",
        "latitude": 23.720600128173828,
        "longitude": 106.95999908447266,
        "type": "CIVIL",
        "zoneId": "Asia/Shanghai"
    },
    {
        "iata": "AEG",
        "name": "Aek Godang Airport",
        "city": "Padang Sidempuan-Sumatra Island",
        "subdivision": "",
        "countryCode": "ID",
        "latitude": 1.4000999927520752,
        "longitude": 99.43049621582031,
        "type": "CIVIL",
        "zoneId": "Asia/Jakarta"
    },
    {
        "iata": "AEH",
        "name": "Abeche Airport",
        "city": "",
        "subdivision": "Ouadai",
        "countryCode": "TD",
        "latitude": 13.847000122070312,
        "longitude": 20.84429931640625,
        "type": "CIVIL",
        "zoneId": "Africa/Ndjamena"
    },
    {
        "iata": "AEL",
        "name": "Albert Lea Municipal Airport",
        "city": "Albert Lea",
        "subdivision": "Minnesota",
        "countryCode": "US",
        "latitude": 43.68130874633789,
        "longitude": -93.36814880371094,
        "type": "CIVIL",
        "zoneId": "America/Chicago"
    },
    {
        "iata": "AEO",
        "name": "Aioun el Atrouss Airport",
        "city": "Aioun El Atrouss",
        "subdivision": "",
        "countryCode": "MR",
        "latitude": 16.711299896240234,
        "longitude": -9.637880325317383,
        "type": "CIVIL",
        "zoneId": "Africa/Nouakchott"
    },
    {
        "iata": "AEP",
        "name": "Jorge Newbery Airpark",
        "city": "Buenos Aires",
        "subdivision": "Buenos-Aires-F-D-",
        "countryCode": "AR",
        "latitude": -34.559200286865234,
        "longitude": -58.41559982299805,
        "type": "CIVIL",
        "zoneId": "America/Argentina/Buenos_Aires"
    },
    {
        "iata": "AER",
        "name": "Sochi International Airport",
        "city": "Sochi",
        "subdivision": "Krasnodarskiy",
        "countryCode": "RU",
        "latitude": 43.44990158081055,
        "longitude": 39.956600189208984,
        "type": "CIVIL",
        "zoneId": "Europe/Moscow"
    },
    {
        "iata": "AES",
        "name": "Ålesund Airport",
        "city": "Ålesund",
        "subdivision": "Møre og Romsdal",
        "countryCode": "NO",
        "latitude": 62.5625,
        "longitude": 6.119699954986572,
        "type": "CIVIL",
        "zoneId": "Europe/Oslo"
    },
    {
        "iata": "AET",
        "name": "Allakaket Airport",
        "city": "Allakaket",
        "subdivision": "Alaska",
        "countryCode": "US",
        "latitude": 66.55182647705078,
        "longitude": -152.62217712402344,
        "type": "CIVIL",
        "zoneId": "America/Anchorage"
    },
    {
        "iata": "AEU",
        "name": "Abu Musa Island Airport",
        "city": "Abu Musa",
        "subdivision": "Hormozgan",
        "countryCode": "IR",
        "latitude": 25.875699996948242,
        "longitude": 55.03300094604492,
        "type": "CIVIL",
        "zoneId": "Asia/Tehran"
    },
    {
        "iata": "AEX",
        "name": "Alexandria International Airport",
        "city": "Alexandria",
        "subdivision": "Louisiana",
        "countryCode": "US",
        "latitude": 31.327369689941406,
        "longitude": -92.5485610961914,
        "type": "CIVIL",
        "zoneId": "America/Chicago"
    },
    {
        "iata": "AEY",
        "name": "Akureyri Airport",
        "city": "Akureyri",
        "subdivision": "Northeast",
        "countryCode": "IS",
        "latitude": 65.66000366210938,
        "longitude": -18.07270050048828,
        "type": "CIVIL",
        "zoneId": "Atlantic/Reykjavik"
    },
    {
        "iata": "AFA",
        "name": "Suboficial Ay Santiago Germano Airport",
        "city": "San Rafael",
        "subdivision": "Mendoza",
        "countryCode": "AR",
        "latitude": -34.58829879760742,
        "longitude": -68.40390014648438,
        "type": "CIVIL",
        "zoneId": "America/Argentina/Mendoza"
    },
    {
        "iata": "AFD",
        "name": "Port Alfred Airport",
        "city": "Port Alfred",
        "subdivision": "Eastern Cape",
        "countryCode": "ZA",
        "latitude": -33.55419921875,
        "longitude": 26.877700805664062,
        "type": "CIVIL",
        "zoneId": "Africa/Johannesburg"
    },
    {
        "iata": "AFI",
        "name": "Amalfi Airport",
        "city": "Amalfi",
        "subdivision": "Antioquia",
        "countryCode": "CO",
        "latitude": 6.916669845581055,
        "longitude": -75.06670379638672,
        "type": "CIVIL",
        "zoneId": "America/Bogota"
    },
    {
        "iata": "AFL",
        "name": "Alta Floresta Airport",
        "city": "Alta Floresta",
        "subdivision": "Mato Grosso do Sul",
        "countryCode": "BR",
        "latitude": -9.866390228271484,
        "longitude": -56.10499954223633,
        "type": "CIVIL",
        "zoneId": "America/Cuiaba"
    },
    {
        "iata": "AFN",
        "name": "Jaffrey Airfield Silver Ranch Airport",
        "city": "Jaffrey",
        "subdivision": "New Hampshire",
        "countryCode": "US",
        "latitude": 42.80513000488281,
        "longitude": -72.00302124023438,
        "type": "CIVIL",
        "zoneId": "America/New_York"
    },
    {
        "iata": "AFO",
        "name": "Afton Municipal Airport",
        "city": "Afton",
        "subdivision": "Wyoming",
        "countryCode": "US",
        "latitude": 42.708770751953125,
        "longitude": -110.94216918945312,
        "type": "CIVIL",
        "zoneId": "America/Denver"
    },
    {
        "iata": "AFS",
        "name": "Sugraly Airport",
        "city": "Zarafshan",
        "subdivision": "Navoiy",
        "countryCode": "UZ",
        "latitude": 41.61389923095703,
        "longitude": 64.23320007324219,
        "type": "CIVIL",
        "zoneId": "Asia/Samarkand"
    },
    {
        "iata": "AFT",
        "name": "Afutara Aerodrome",
        "city": "Bila",
        "subdivision": "Malaita",
        "countryCode": "SB",
        "latitude": -9.191390037536621,
        "longitude": 160.9486083984375,
        "type": "CIVIL",
        "zoneId": "Pacific/Guadalcanal"
    },
    {
        "iata": "AFW",
        "name": "Perot Field/Fort Worth Alliance Airport",
        "city": "Fort Worth",
        "subdivision": "Texas",
        "countryCode": "US",
        "latitude": 33.0,
        "longitude": -97.30000305175781,
        "type": "CIVIL",
        "zoneId": "America/Chicago"
    },
    {
        "iata": "AFZ",
        "name": "Sabzevar National Airport",
        "city": "Sabzevar",
        "subdivision": "Razavi-Khorasan",
        "countryCode": "IR",
        "latitude": 36.16809844970703,
        "longitude": 57.59519958496094,
        "type": "CIVIL",
        "zoneId": "Asia/Tehran"
    },
    {
        "iata": "AGA",
        "name": "Al Massira Airport",
        "city": "Agadir",
        "subdivision": "Souss-Massa",
        "countryCode": "MA",
        "latitude": 30.325000762939453,
        "longitude": -9.413069725036621,
        "type": "CIVIL",
        "zoneId": "Africa/Casablanca"
    },
    {
        "iata": "AGB",
        "name": "Augsburg Airport",
        "city": "Augsburg",
        "subdivision": "Bayern",
        "countryCode": "DE",
        "latitude": 48.4252815246582,
        "longitude": 10.931670188903809,
        "type": "CIVIL",
        "zoneId": "Europe/Berlin"
    },
    {
        "iata": "AGC",
        "name": "Allegheny County Airport",
        "city": "Pittsburgh",
        "subdivision": "Pennsylvania",
        "countryCode": "US",
        "latitude": 40.35443878173828,
        "longitude": -79.92904663085938,
        "type": "CIVIL",
        "zoneId": "America/New_York"
    },
    {
        "iata": "AGE",
        "name": "Wangerooge Airport",
        "city": "Wangerooge",
        "subdivision": "Niedersachsen",
        "countryCode": "DE",
        "latitude": 53.782779693603516,
        "longitude": 7.9138898849487305,
        "type": "CIVIL",
        "zoneId": "Europe/Berlin"
    },
    {
        "iata": "AGF",
        "name": "Agen-La Garenne Airport",
        "city": "Agen/La Garenne",
        "subdivision": "Nouvelle-Aquitaine",
        "countryCode": "FR",
        "latitude": 44.17470169067383,
        "longitude": 0.5905600190162659,
        "type": "CIVIL",
        "zoneId": "Europe/Paris"
    },
    {
        "iata": "AGH",
        "name": "Angelholm-Helsingborg Airport",
        "city": "Angelholm",
        "subdivision": "Skane",
        "countryCode": "SE",
        "latitude": 56.29610061645508,
        "longitude": 12.847100257873535,
        "type": "CIVIL",
        "zoneId": "Europe/Stockholm"
    },
    {
        "iata": "AGI",
        "name": "Wageningen Airport Airport",
        "city": "Wageningen Airport",
        "subdivision": "Nickerie",
        "countryCode": "SR",
        "latitude": 5.766670227050781,
        "longitude": -56.633331298828125,
        "type": "CIVIL",
        "zoneId": "America/Paramaribo"
    },
    {
        "iata": "AGJ",
        "name": "Aguni Airport",
        "city": "Aguni",
        "subdivision": "Okinawa",
        "countryCode": "JP",
        "latitude": 26.592500686645508,
        "longitude": 127.24099731445312,
        "type": "CIVIL",
        "zoneId": "Asia/Tokyo"
    },
    {
        "iata": "AGL",
        "name": "Wanigela Airport",
        "city": "",
        "subdivision": "Northern Province",
        "countryCode": "PG",
        "latitude": -9.337499618530273,
        "longitude": 149.1555633544922,
        "type": "CIVIL",
        "zoneId": "Pacific/Port_Moresby"
    },
    {
        "iata": "AGO",
        "name": "Ralph C Weiser Field",
        "city": "Magnolia",
        "subdivision": "Arkansas",
        "countryCode": "US",
        "latitude": 33.22747039794922,
        "longitude": -93.21700286865234,
        "type": "CIVIL",
        "zoneId": "America/Chicago"
    },
    {
        "iata": "AGP",
        "name": "Malaga Airport",
        "city": "Malaga",
        "subdivision": "Andalucía",
        "countryCode": "ES",
        "latitude": 36.67490005493164,
        "longitude": -4.499110221862793,
        "type": "CIVIL",
        "zoneId": "Europe/Madrid"
    },
    {
        "iata": "AGQ",
        "name": "Agrinion Airport",
        "city": "Agrinion",
        "subdivision": "West Greece",
        "countryCode": "GR",
        "latitude": 38.60200119018555,
        "longitude": 21.351200103759766,
        "type": "CIVIL",
        "zoneId": "Europe/Athens"
    },
    {
        "iata": "AGR",
        "name": "Agra Airport",
        "city": "",
        "subdivision": "Uttar Pradesh",
        "countryCode": "IN",
        "latitude": 27.155799865722656,
        "longitude": 77.96089935302734,
        "type": "CIVIL",
        "zoneId": "Asia/Kolkata"
    },
    {
        "iata": "AGS",
        "name": "Augusta Regional At Bush Field",
        "city": "Augusta",
        "subdivision": "Georgia",
        "countryCode": "US",
        "latitude": 33.36994171142578,
        "longitude": -81.9645004272461,
        "type": "CIVIL",
        "zoneId": "America/New_York"
    },
    {
        "iata": "AGT",
        "name": "Guarani International Airport",
        "city": "Ciudad del Este",
        "subdivision": "Alto-Parana",
        "countryCode": "PY",
        "latitude": -25.459999084472656,
        "longitude": -54.84000015258789,
        "type": "CIVIL",
        "zoneId": "America/Asuncion"
    },
    {
        "iata": "AGU",
        "name": "Jesus Teran International Airport",
        "city": "Aguascalientes",
        "subdivision": "Aguascalientes",
        "countryCode": "MX",
        "latitude": 21.70560073852539,
        "longitude": -102.31800079345703,
        "type": "CIVIL",
        "zoneId": "America/Mexico_City"
    },
    {
        "iata": "AGV",
        "name": "Oswaldo Guevara Mujica Airport",
        "city": "Acarigua",
        "subdivision": "Portuguesa",
        "countryCode": "VE",
        "latitude": 9.553380012512207,
        "longitude": -69.23786926269531,
        "type": "CIVIL",
        "zoneId": "America/Caracas"
    },
    {
        "iata": "AGX",
        "name": "Agatti Airport",
        "city": "",
        "subdivision": "Lakshadweep",
        "countryCode": "IN",
        "latitude": 10.823699951171875,
        "longitude": 72.1760025024414,
        "type": "CIVIL",
        "zoneId": "Asia/Kolkata"
    },
    {
        "iata": "AGZ",
        "name": "Aggeneys Airport",
        "city": "Aggeneys",
        "subdivision": "Northern Cape",
        "countryCode": "ZA",
        "latitude": -29.28179931640625,
        "longitude": 18.813899993896484,
        "type": "CIVIL",
        "zoneId": "Africa/Johannesburg"
    },
    {
        "iata": "AHB",
        "name": "Abha Regional Airport",
        "city": "Abha",
        "subdivision": "",
        "countryCode": "SA",
        "latitude": 18.240400314331055,
        "longitude": 42.65660095214844,
        "type": "CIVIL",
        "zoneId": "Asia/Riyadh"
    },
    {
        "iata": "AHD",
        "name": "Ardmore Downtown Executive Airport",
        "city": "Ardmore",
        "subdivision": "Oklahoma",
        "countryCode": "US",
        "latitude": 34.099998474121094,
        "longitude": -97.0999984741211,
        "type": "CIVIL",
        "zoneId": "America/Chicago"
    },
    {
        "iata": "AHE",
        "name": "Ahe Airport",
        "city": "Ahe Atoll",
        "subdivision": "Iles-Tuamotu-Gambier",
        "countryCode": "PF",
        "latitude": -14.428099632263184,
        "longitude": -146.2570037841797,
        "type": "CIVIL",
        "zoneId": "Pacific/Tahiti"
    },
    {
        "iata": "AHF",
        "name": "Arapahoe Municipal Airport",
        "city": "Arapahoe",
        "subdivision": "Nebraska",
        "countryCode": "US",
        "latitude": 40.34157943725586,
        "longitude": -99.90780639648438,
        "type": "CIVIL",
        "zoneId": "America/Chicago"
    },
    {
        "iata": "AHH",
        "name": "Amery Municipal Airport",
        "city": "Amery",
        "subdivision": "Wisconsin",
        "countryCode": "US",
        "latitude": 45.281150817871094,
        "longitude": -92.3753890991211,
        "type": "CIVIL",
        "zoneId": "America/Chicago"
    },
    {
        "iata": "AHI",
        "name": "Amahai Airport",
        "city": "Amahai-Seram Island",
        "subdivision": "Maluku",
        "countryCode": "ID",
        "latitude": -3.3480000495910645,
        "longitude": 128.92599487304688,
        "type": "CIVIL",
        "zoneId": "Asia/Jayapura"
    },
    {
        "iata": "AHJ",
        "name": "Hongyuan Airport",
        "city": "Aba Hongyuan",
        "subdivision": "Sichuan",
        "countryCode": "CN",
        "latitude": 32.527401,
        "longitude": 102.357399,
        "type": "CIVIL",
        "zoneId": "Asia/Shanghai"
    },
    {
        "iata": "AHL",
        "name": "Aishalton Airport",
        "city": "Aishalton",
        "subdivision": "Upper-Takutu-Upper-Essequibo",
        "countryCode": "GY",
        "latitude": 2.486530065536499,
        "longitude": -59.31340026855469,
        "type": "CIVIL",
        "zoneId": "America/Guyana"
    },
    {
        "iata": "AHM",
        "name": "Ashland Municipal/Sumner Parker Field",
        "city": "Ashland",
        "subdivision": "Oregon",
        "countryCode": "US",
        "latitude": 42.19028091430664,
        "longitude": -122.66063690185547,
        "type": "CIVIL",
        "zoneId": "America/Los_Angeles"
    },
    {
        "iata": "AHN",
        "name": "Athens/Ben Epps Airport",
        "city": "Athens",
        "subdivision": "Georgia",
        "countryCode": "US",
        "latitude": 33.948638916015625,
        "longitude": -83.32591247558594,
        "type": "CIVIL",
        "zoneId": "America/New_York"
    },
    {
        "iata": "AHO",
        "name": "Alghero / Fertilia Airport",
        "city": "Alghero",
        "subdivision": "Sardinia",
        "countryCode": "IT",
        "latitude": 40.63209915161133,
        "longitude": 8.290769577026367,
        "type": "CIVIL",
        "zoneId": "Europe/Rome"
    },
    {
        "iata": "AHS",
        "name": "Ahuas Airport",
        "city": "Ahuas",
        "subdivision": "Gracias-a-Dios",
        "countryCode": "HN",
        "latitude": 15.472200393676758,
        "longitude": -84.35220336914062,
        "type": "CIVIL",
        "zoneId": "America/Tegucigalpa"
    },
    {
        "iata": "AHU",
        "name": "Cherif Al Idrissi Airport",
        "city": "Al Hoceima",
        "subdivision": "Tanger-Tetouan-Al-Hoceima",
        "countryCode": "MA",
        "latitude": 35.177101135253906,
        "longitude": -3.83951997756958,
        "type": "CIVIL",
        "zoneId": "Africa/Casablanca"
    },
    {
        "iata": "AHZ",
        "name": "L'alpe D'huez Airport",
        "city": "Bourg",
        "subdivision": "Auvergne-Rhone-Alpes",
        "countryCode": "FR",
        "latitude": 45.08829879760742,
        "longitude": 6.084720134735107,
        "type": "CIVIL",
        "zoneId": "Europe/Paris"
    },
    {
        "iata": "AIA",
        "name": "Alliance Municipal Airport",
        "city": "Alliance",
        "subdivision": "Nebraska",
        "countryCode": "US",
        "latitude": 42.053218841552734,
        "longitude": -102.80374908447266,
        "type": "CIVIL",
        "zoneId": "America/Denver"
    },
    {
        "iata": "AID",
        "name": "Anderson Municipal-Darlington Field",
        "city": "Anderson",
        "subdivision": "Indiana",
        "countryCode": "US",
        "latitude": 40.10860824584961,
        "longitude": -85.61299896240234,
        "type": "CIVIL",
        "zoneId": "America/Indiana/Indianapolis"
    },
    {
        "iata": "AIE",
        "name": "Aiome Airport",
        "city": "Aiome",
        "subdivision": "Madang",
        "countryCode": "PG",
        "latitude": -5.145699977874756,
        "longitude": 144.73069763183594,
        "type": "CIVIL",
        "zoneId": "Pacific/Port_Moresby"
    },
    {
        "iata": "AIF",
        "name": "Marcelo Pires Halzhausen Airport",
        "city": "Assis",
        "subdivision": "São Paulo",
        "countryCode": "BR",
        "latitude": -22.639999389648438,
        "longitude": -50.453060150146484,
        "type": "CIVIL",
        "zoneId": "America/Sao_Paulo"
    },
    {
        "iata": "AIG",
        "name": "Yalinga Airport",
        "city": "Yalinga",
        "subdivision": "Haute-Kotto",
        "countryCode": "CF",
        "latitude": 6.519999980926514,
        "longitude": 23.260000228881836,
        "type": "CIVIL",
        "zoneId": "Africa/Bangui"
    },
    {
        "iata": "AII",
        "name": "Ali-Sabieh Airport",
        "city": "Ali-Sabieh",
        "subdivision": "Ali Sabieh",
        "countryCode": "DJ",
        "latitude": 11.146889686584473,
        "longitude": 42.720001220703125,
        "type": "CIVIL",
        "zoneId": "Africa/Djibouti"
    },
    {
        "iata": "AIK",
        "name": "Aiken Regional Airport",
        "city": "Aiken",
        "subdivision": "South Carolina",
        "countryCode": "US",
        "latitude": 33.649391174316406,
        "longitude": -81.68502807617188,
        "type": "CIVIL",
        "zoneId": "America/New_York"
    },
    {
        "iata": "AIN",
        "name": "Wainwright Airport",
        "city": "Wainwright",
        "subdivision": "Alaska",
        "countryCode": "US",
        "latitude": 70.63800048828125,
        "longitude": -159.9947509765625,
        "type": "CIVIL",
        "zoneId": "America/Anchorage"
    },
    {
        "iata": "AIO",
        "name": "Atlantic Municipal Airport",
        "city": "Atlantic",
        "subdivision": "Iowa",
        "countryCode": "US",
        "latitude": 41.403831481933594,
        "longitude": -95.04875183105469,
        "type": "CIVIL",
        "zoneId": "America/Chicago"
    },
    {
        "iata": "AIP",
        "name": "Adampur Air Force Station",
        "city": "",
        "subdivision": "Punjab",
        "countryCode": "IN",
        "latitude": 31.433799743652344,
        "longitude": 75.75879669189453,
        "type": "CIVIL",
        "zoneId": "Asia/Kolkata"
    },
    {
        "iata": "AIR",
        "name": "Aripuanã Airport",
        "city": "Aripuanã",
        "subdivision": "Minas Gerais",
        "countryCode": "BR",
        "latitude": -10.185500144958496,
        "longitude": -59.457828521728516,
        "type": "CIVIL",
        "zoneId": "America/Sao_Paulo"
    },
    {
        "iata": "AIS",
        "name": "Arorae Island Airport",
        "city": "Arorae Island",
        "subdivision": "Gilbert-Islands",
        "countryCode": "KI",
        "latitude": -2.61611008644104,
        "longitude": 176.80299377441406,
        "type": "CIVIL",
        "zoneId": "Pacific/Tarawa"
    },
    {
        "iata": "AIT",
        "name": "Aitutaki Airport",
        "city": "Aitutaki",
        "subdivision": "",
        "countryCode": "CK",
        "latitude": -18.830900192260742,
        "longitude": -159.76400756835938,
        "type": "CIVIL",
        "zoneId": "Pacific/Rarotonga"
    },
    {
        "iata": "AIU",
        "name": "Enua Airport",
        "city": "Atiu Island",
        "subdivision": "",
        "countryCode": "CK",
        "latitude": -19.96780014038086,
        "longitude": -158.11900329589844,
        "type": "CIVIL",
        "zoneId": "Pacific/Rarotonga"
    },
    {
        "iata": "AIV",
        "name": "George Downer Airport",
        "city": "Aliceville",
        "subdivision": "Alabama",
        "countryCode": "US",
        "latitude": 33.10673904418945,
        "longitude": -88.19718170166016,
        "type": "CIVIL",
        "zoneId": "America/Chicago"
    },
    {
        "iata": "AIZ",
        "name": "Lee C Fine Memorial Airport",
        "city": "Kaiser/Lake Ozark",
        "subdivision": "Missouri",
        "countryCode": "US",
        "latitude": 38.096031188964844,
        "longitude": -92.54946899414062,
        "type": "CIVIL",
        "zoneId": "America/Chicago"
    },
    {
        "iata": "AJA",
        "name": "Ajaccio-Napoleon Bonaparte Airport",
        "city": "Ajaccio/Napoleon Bonaparte",
        "subdivision": "Corsica",
        "countryCode": "FR",
        "latitude": 41.92359924316406,
        "longitude": 8.8029203414917,
        "type": "CIVIL",
        "zoneId": "Europe/Paris"
    },
    {
        "iata": "AJF",
        "name": "Al-Jawf Domestic Airport",
        "city": "Al-Jawf",
        "subdivision": "Al-Jawf",
        "countryCode": "SA",
        "latitude": 29.78510093688965,
        "longitude": 40.099998474121094,
        "type": "CIVIL",
        "zoneId": "Asia/Riyadh"
    },
    {
        "iata": "AJI",
        "name": "Agri Airport",
        "city": "Agri",
        "subdivision": "Agri",
        "countryCode": "TR",
        "latitude": 39.654541015625,
        "longitude": 43.02598190307617,
        "type": "CIVIL",
        "zoneId": "Europe/Istanbul"
    },
    {
        "iata": "AJJ",
        "name": "Akjoujt Airport",
        "city": "Akjoujt",
        "subdivision": "",
        "countryCode": "MR",
        "latitude": 19.733020782470703,
        "longitude": -14.38325023651123,
        "type": "CIVIL",
        "zoneId": "Africa/Nouakchott"
    },
    {
        "iata": "AJK",
        "name": "Arak Airport",
        "city": "Araak",
        "subdivision": "Markazi",
        "countryCode": "IR",
        "latitude": 34.138099670410156,
        "longitude": 49.8473014831543,
        "type": "CIVIL",
        "zoneId": "Asia/Tehran"
    },
    {
        "iata": "AJL",
        "name": "Lengpui Airport",
        "city": "Aizawl",
        "subdivision": "Mizoram",
        "countryCode": "IN",
        "latitude": 23.840599060058594,
        "longitude": 92.61969757080078,
        "type": "CIVIL",
        "zoneId": "Asia/Kolkata"
    },
    {
        "iata": "AJN",
        "name": "Ouani Airport",
        "city": "Ouani",
        "subdivision": "Anjouan",
        "countryCode": "KM",
        "latitude": -12.131699562072754,
        "longitude": 44.430301666259766,
        "type": "CIVIL",
        "zoneId": "Indian/Comoro"
    },
    {
        "iata": "AJR",
        "name": "Arvidsjaur Airport",
        "city": "Arvidsjaur",
        "subdivision": "Norrbotten",
        "countryCode": "SE",
        "latitude": 65.59030151367188,
        "longitude": 19.28190040588379,
        "type": "CIVIL",
        "zoneId": "Europe/Stockholm"
    },
    {
        "iata": "AJU",
        "name": "Santa Maria Airport",
        "city": "Aracaju",
        "subdivision": "Sergipe",
        "countryCode": "BR",
        "latitude": -10.984000205993652,
        "longitude": -37.0703010559082,
        "type": "CIVIL",
        "zoneId": "America/Fortaleza"
    },
    {
        "iata": "AJY",
        "name": "Mano Dayak International Airport",
        "city": "Agadez",
        "subdivision": "Agadez",
        "countryCode": "NE",
        "latitude": 16.965999603271484,
        "longitude": 8.000109672546387,
        "type": "CIVIL",
        "zoneId": "Africa/Niamey"
    },
    {
        "iata": "AKA",
        "name": "Ankang Airport",
        "city": "Ankang",
        "subdivision": "Shaanxi",
        "countryCode": "CN",
        "latitude": 32.708099365234375,
        "longitude": 108.93099975585938,
        "type": "CIVIL",
        "zoneId": "Asia/Shanghai"
    },
    {
        "iata": "AKB",
        "name": "Atka Airport",
        "city": "Atka",
        "subdivision": "Alaska",
        "countryCode": "US",
        "latitude": 52.2205810546875,
        "longitude": -174.20619201660156,
        "type": "CIVIL",
        "zoneId": "America/Adak"
    },
    {
        "iata": "AKC",
        "name": "Akron Fulton International Airport",
        "city": "Akron",
        "subdivision": "Ohio",
        "countryCode": "US",
        "latitude": 41.037418365478516,
        "longitude": -81.46768188476562,
        "type": "CIVIL",
        "zoneId": "America/New_York"
    },
    {
        "iata": "AKD",
        "name": "Akola Airport",
        "city": "",
        "subdivision": "Maharashtra",
        "countryCode": "IN",
        "latitude": 20.698999404907227,
        "longitude": 77.05860137939453,
        "type": "CIVIL",
        "zoneId": "Asia/Kolkata"
    },
    {
        "iata": "AKF",
        "name": "Kufra Airport",
        "city": "Kufra",
        "subdivision": "Al-Kufrah",
        "countryCode": "LY",
        "latitude": 24.178699493408203,
        "longitude": 23.31399917602539,
        "type": "CIVIL",
        "zoneId": "Africa/Tripoli"
    },
    {
        "iata": "AKI",
        "name": "Akiak Airport",
        "city": "Akiak",
        "subdivision": "Alaska",
        "countryCode": "US",
        "latitude": 60.90290069580078,
        "longitude": -161.23057556152344,
        "type": "CIVIL",
        "zoneId": "America/Anchorage"
    },
    {
        "iata": "AKJ",
        "name": "Asahikawa Airport",
        "city": "Asahikawa",
        "subdivision": "Hokkaido",
        "countryCode": "JP",
        "latitude": 43.670799255371094,
        "longitude": 142.44700622558594,
        "type": "CIVIL",
        "zoneId": "Asia/Tokyo"
    },
    {
        "iata": "AKK",
        "name": "Akhiok Airport",
        "city": "Akhiok",
        "subdivision": "Alaska",
        "countryCode": "US",
        "latitude": 56.938690185546875,
        "longitude": -154.18255615234375,
        "type": "CIVIL",
        "zoneId": "America/Anchorage"
    },
    {
        "iata": "AKL",
        "name": "Auckland International Airport",
        "city": "Auckland",
        "subdivision": "Auckland",
        "countryCode": "NZ",
        "latitude": -37.00809860229492,
        "longitude": 174.79200744628906,
        "type": "CIVIL",
        "zoneId": "Pacific/Auckland"
    },
    {
        "iata": "AKN",
        "name": "King Salmon Airport",
        "city": "King Salmon",
        "subdivision": "Alaska",
        "countryCode": "US",
        "latitude": 58.676490783691406,
        "longitude": -156.64869689941406,
        "type": "CIVIL",
        "zoneId": "America/Anchorage"
    },
    {
        "iata": "AKO",
        "name": "Colorado Plains Regional Airport",
        "city": "Akron",
        "subdivision": "Colorado",
        "countryCode": "US",
        "latitude": 40.17564010620117,
        "longitude": -103.22203063964844,
        "type": "CIVIL",
        "zoneId": "America/Denver"
    },
    {
        "iata": "AKP",
        "name": "Anaktuvuk Pass Airport",
        "city": "Anaktuvuk Pass",
        "subdivision": "Alaska",
        "countryCode": "US",
        "latitude": 68.13361358642578,
        "longitude": -151.7433319091797,
        "type": "CIVIL",
        "zoneId": "America/Anchorage"
    },
    {
        "iata": "AKQ",
        "name": "Menggala Airport",
        "city": "Menggala-Sumatra Island",
        "subdivision": "",
        "countryCode": "ID",
        "latitude": -4.489439964294434,
        "longitude": 105.21700286865234,
        "type": "CIVIL",
        "zoneId": "Asia/Jakarta"
    },
    {
        "iata": "AKS",
        "name": "Auki Airport",
        "city": "Auki",
        "subdivision": "",
        "countryCode": "SB",
        "latitude": -8.702569961547852,
        "longitude": 160.6820068359375,
        "type": "CIVIL",
        "zoneId": "Pacific/Guadalcanal"
    },
    {
        "iata": "AKU",
        "name": "Aksu Airport",
        "city": "Aksu",
        "subdivision": "Xinjiang",
        "countryCode": "CN",
        "latitude": 41.26250076293945,
        "longitude": 80.29170227050781,
        "type": "CIVIL",
        "zoneId": "Asia/Shanghai"
    },
    {
        "iata": "AKV",
        "name": "Akulivik Airport",
        "city": "Akulivik",
        "subdivision": "Quebec",
        "countryCode": "CA",
        "latitude": 60.818599700927734,
        "longitude": -78.14859771728516,
        "type": "CIVIL",
        "zoneId": "America/Toronto"
    },
    {
        "iata": "AKW",
        "name": "Aghajari Airport",
        "city": "",
        "subdivision": "Khuzestan",
        "countryCode": "IR",
        "latitude": 30.744400024414062,
        "longitude": 49.67720031738281,
        "type": "CIVIL",
        "zoneId": "Asia/Tehran"
    },
    {
        "iata": "AKX",
        "name": "Aktobe Aliya Moldagulova International Airport",
        "city": "Aktyubinsk",
        "subdivision": "Aqtöbe",
        "countryCode": "KZ",
        "latitude": 50.24580001831055,
        "longitude": 57.20669937133789,
        "type": "CIVIL",
        "zoneId": "Asia/Aqtobe"
    },
    {
        "iata": "AKY",
        "name": "Sittwe Airport",
        "city": "Sittwe",
        "subdivision": "Rakhine",
        "countryCode": "MM",
        "latitude": 20.132699966430664,
        "longitude": 92.87259674072266,
        "type": "CIVIL",
        "zoneId": "Asia/Yangon"
    },
    {
        "iata": "ALA",
        "name": "Almaty International Airport",
        "city": "Almaty",
        "subdivision": "Almaty-Oblysy",
        "countryCode": "KZ",
        "latitude": 43.35210037231445,
        "longitude": 77.04049682617188,
        "type": "CIVIL",
        "zoneId": "Asia/Almaty"
    },
    {
        "iata": "ALB",
        "name": "Albany International Airport",
        "city": "Albany",
        "subdivision": "New York",
        "countryCode": "US",
        "latitude": 42.74911880493164,
        "longitude": -73.8019790649414,
        "type": "CIVIL",
        "zoneId": "America/New_York"
    },
    {
        "iata": "ALC",
        "name": "Alicante International Airport",
        "city": "Alicante",
        "subdivision": "Comunidad Valenciana",
        "countryCode": "ES",
        "latitude": 38.28219985961914,
        "longitude": -0.5581600069999695,
        "type": "CIVIL",
        "zoneId": "Europe/Madrid"
    },
    {
        "iata": "ALD",
        "name": "Alerta Airport",
        "city": "Fortaleza",
        "subdivision": "Madre-de-Dios",
        "countryCode": "PE",
        "latitude": -11.682999610900879,
        "longitude": -69.33300018310547,
        "type": "CIVIL",
        "zoneId": "America/Lima"
    },
    {
        "iata": "ALE",
        "name": "Alpine-Casparis Municipal Airport",
        "city": "Alpine",
        "subdivision": "Texas",
        "countryCode": "US",
        "latitude": 30.384220123291016,
        "longitude": -103.68357849121094,
        "type": "CIVIL",
        "zoneId": "America/Chicago"
    },
    {
        "iata": "ALF",
        "name": "Alta Airport",
        "city": "Alta",
        "subdivision": "Finnmark",
        "countryCode": "NO",
        "latitude": 69.9760971069336,
        "longitude": 23.371700286865234,
        "type": "CIVIL",
        "zoneId": "Europe/Oslo"
    },
    {
        "iata": "ALG",
        "name": "Houari Boumediene Airport",
        "city": "Algiers",
        "subdivision": "Algiers",
        "countryCode": "DZ",
        "latitude": 36.691001892089844,
        "longitude": 3.215409994125366,
        "type": "CIVIL",
        "zoneId": "Africa/Algiers"
    },
    {
        "iata": "ALH",
        "name": "Albany Airport",
        "city": "Albany",
        "subdivision": "Western Australia",
        "countryCode": "AU",
        "latitude": -34.94329833984375,
        "longitude": 117.80899810791016,
        "type": "CIVIL",
        "zoneId": "Australia/Perth"
    },
    {
        "iata": "ALI",
        "name": "Alice International Airport",
        "city": "Alice",
        "subdivision": "Texas",
        "countryCode": "US",
        "latitude": 27.740890502929688,
        "longitude": -98.02693939208984,
        "type": "CIVIL",
        "zoneId": "America/Chicago"
    },
    {
        "iata": "ALJ",
        "name": "Alexander Bay Airport",
        "city": "Alexander Bay",
        "subdivision": "Northern Cape",
        "countryCode": "ZA",
        "latitude": -28.575000762939453,
        "longitude": 16.533300399780273,
        "type": "CIVIL",
        "zoneId": "Africa/Johannesburg"
    },
    {
        "iata": "ALL",
        "name": "Villanova D'Albenga International Airport",
        "city": "Albenga",
        "subdivision": "Liguria",
        "countryCode": "IT",
        "latitude": 44.05059814453125,
        "longitude": 8.127429962158203,
        "type": "CIVIL",
        "zoneId": "Europe/Rome"
    },
    {
        "iata": "ALM",
        "name": "Alamogordo-White Sands Regional Airport",
        "city": "Alamogordo",
        "subdivision": "New Mexico",
        "countryCode": "US",
        "latitude": 32.839420318603516,
        "longitude": -105.99114227294922,
        "type": "CIVIL",
        "zoneId": "America/Denver"
    },
    {
        "iata": "ALN",
        "name": "St Louis Regional Airport",
        "city": "Alton/St Louis",
        "subdivision": "Illinois",
        "countryCode": "US",
        "latitude": 38.88991928100586,
        "longitude": -90.0459976196289,
        "type": "CIVIL",
        "zoneId": "America/Chicago"
    },
    {
        "iata": "ALO",
        "name": "Waterloo Regional Airport",
        "city": "Waterloo",
        "subdivision": "Iowa",
        "countryCode": "US",
        "latitude": 42.558448791503906,
        "longitude": -92.40101623535156,
        "type": "CIVIL",
        "zoneId": "America/Chicago"
    },
    {
        "iata": "ALP",
        "name": "Aleppo International Airport",
        "city": "Aleppo",
        "subdivision": "Aleppo",
        "countryCode": "SY",
        "latitude": 36.18069839477539,
        "longitude": 37.22439956665039,
        "type": "CIVIL",
        "zoneId": "Asia/Damascus"
    },
    {
        "iata": "ALQ",
        "name": "Alegrete Novo Airport",
        "city": "Alegrete",
        "subdivision": "Rio Grande do Sul",
        "countryCode": "BR",
        "latitude": -29.812700271606445,
        "longitude": -55.89339828491211,
        "type": "CIVIL",
        "zoneId": "America/Sao_Paulo"
    },
    {
        "iata": "ALR",
        "name": "Alexandra Airport",
        "city": "Alexandra",
        "subdivision": "Otago",
        "countryCode": "NZ",
        "latitude": -45.211700439453125,
        "longitude": 169.3730010986328,
        "type": "CIVIL",
        "zoneId": "Pacific/Auckland"
    },
    {
        "iata": "ALS",
        "name": "San Luis Valley Regional/Bergman Field",
        "city": "Alamosa",
        "subdivision": "Colorado",
        "countryCode": "US",
        "latitude": 37.43511962890625,
        "longitude": -105.86788177490234,
        "type": "CIVIL",
        "zoneId": "America/Denver"
    },
    {
        "iata": "ALT",
        "name": "Alenquer Airport",
        "city": "Alenquer",
        "subdivision": "Pará",
        "countryCode": "BR",
        "latitude": -1.9169399738311768,
        "longitude": -54.72249984741211,
        "type": "CIVIL",
        "zoneId": "America/Manaus"
    },
    {
        "iata": "ALU",
        "name": "Alula Airport",
        "city": "Alula",
        "subdivision": "Bari",
        "countryCode": "SO",
        "latitude": 11.958200454711914,
        "longitude": 50.74800109863281,
        "type": "CIVIL",
        "zoneId": "Africa/Mogadishu"
    },
    {
        "iata": "ALW",
        "name": "Walla Walla Regional Airport",
        "city": "Walla Walla",
        "subdivision": "Washington",
        "countryCode": "US",
        "latitude": 46.0925407409668,
        "longitude": -118.2840805053711,
        "type": "CIVIL",
        "zoneId": "America/Los_Angeles"
    },
    {
        "iata": "ALX",
        "name": "Thomas C Russell Field",
        "city": "Alexander City",
        "subdivision": "Alabama",
        "countryCode": "US",
        "latitude": 32.91474914550781,
        "longitude": -85.96293640136719,
        "type": "CIVIL",
        "zoneId": "America/Chicago"
    },
    {
        "iata": "ALY",
        "name": "El Nouzha Airport",
        "city": "Alexandria",
        "subdivision": "",
        "countryCode": "EG",
        "latitude": 31.183900833129883,
        "longitude": 29.94890022277832,
        "type": "CIVIL",
        "zoneId": "Africa/Cairo"
    },
    {
        "iata": "AMA",
        "name": "Rick Husband Amarillo International Airport",
        "city": "Amarillo",
        "subdivision": "Texas",
        "countryCode": "US",
        "latitude": 35.2193603515625,
        "longitude": -101.70591735839844,
        "type": "CIVIL",
        "zoneId": "America/Chicago"
    },
    {
        "iata": "AMC",
        "name": "Am Timan Airport",
        "city": "Am Timan",
        "subdivision": "Salamat",
        "countryCode": "TD",
        "latitude": 11.034000396728516,
        "longitude": 20.27400016784668,
        "type": "CIVIL",
        "zoneId": "Africa/Ndjamena"
    },
    {
        "iata": "AMD",
        "name": "Sardar Vallabhbhai Patel International Airport",
        "city": "Ahmedabad",
        "subdivision": "Gujarat",
        "countryCode": "IN",
        "latitude": 23.077199935913086,
        "longitude": 72.63469696044922,
        "type": "CIVIL",
        "zoneId": "Asia/Kolkata"
    },
    {
        "iata": "AMH",
        "name": "Arba Minch Airport",
        "city": "",
        "subdivision": "SNNPR",
        "countryCode": "ET",
        "latitude": 6.0393900871276855,
        "longitude": 37.59049987792969,
        "type": "CIVIL",
        "zoneId": "Africa/Addis_Ababa"
    },
    {
        "iata": "AMK",
        "name": "Animas Air Park",
        "city": "Durango",
        "subdivision": "Colorado",
        "countryCode": "US",
        "latitude": 37.20317840576172,
        "longitude": -107.86920166015625,
        "type": "CIVIL",
        "zoneId": "America/Denver"
    },
    {
        "iata": "AMM",
        "name": "Queen Alia International Airport",
        "city": "Amman",
        "subdivision": "Amman",
        "countryCode": "JO",
        "latitude": 31.72260093688965,
        "longitude": 35.99319839477539,
        "type": "CIVIL",
        "zoneId": "Asia/Amman"
    },
    {
        "iata": "AMN",
        "name": "Gratiot Community Airport",
        "city": "Alma",
        "subdivision": "Michigan",
        "countryCode": "US",
        "latitude": 43.322139739990234,
        "longitude": -84.68794250488281,
        "type": "CIVIL",
        "zoneId": "America/Detroit"
    },
    {
        "iata": "AMQ",
        "name": "Pattimura Airport Ambon",
        "city": "Ambon",
        "subdivision": "Maluku",
        "countryCode": "ID",
        "latitude": -3.7102599143981934,
        "longitude": 128.08900451660156,
        "type": "CIVIL",
        "zoneId": "Asia/Jayapura"
    },
    {
        "iata": "AMS",
        "name": "Amsterdam Airport Schiphol",
        "city": "Amsterdam",
        "subdivision": "North Holland",
        "countryCode": "NL",
        "latitude": 52.30860137939453,
        "longitude": 4.763889789581299,
        "type": "CIVIL",
        "zoneId": "Europe/Amsterdam"
    },
    {
        "iata": "AMV",
        "name": "Amderma Airport",
        "city": "Amderma",
        "subdivision": "Nenets",
        "countryCode": "RU",
        "latitude": 69.76329803466797,
        "longitude": 61.556400299072266,
        "type": "CIVIL",
        "zoneId": "Europe/Moscow"
    },
    {
        "iata": "AMW",
        "name": "Ames Municipal Airport",
        "city": "Ames",
        "subdivision": "Iowa",
        "countryCode": "US",
        "latitude": 41.99203872680664,
        "longitude": -93.62181854248047,
        "type": "CIVIL",
        "zoneId": "America/Chicago"
    },
    {
        "iata": "AMZ",
        "name": "Ardmore Airport",
        "city": "Manurewa",
        "subdivision": "Auckland",
        "countryCode": "NZ",
        "latitude": -37.029701232910156,
        "longitude": 174.97300720214844,
        "type": "CIVIL",
        "zoneId": "Pacific/Auckland"
    },
    {
        "iata": "ANB",
        "name": "Anniston Regional Airport",
        "city": "Anniston",
        "subdivision": "Alabama",
        "countryCode": "US",
        "latitude": 33.58816909790039,
        "longitude": -85.85810852050781,
        "type": "CIVIL",
        "zoneId": "America/Chicago"
    },
    {
        "iata": "ANC",
        "name": "Ted Stevens Anchorage International Airport",
        "city": "Anchorage",
        "subdivision": "Alaska",
        "countryCode": "US",
        "latitude": 61.17407989501953,
        "longitude": -149.99813842773438,
        "type": "CIVIL",
        "zoneId": "America/Anchorage"
    },
    {
        "iata": "AND",
        "name": "Anderson Regional Airport",
        "city": "Anderson",
        "subdivision": "South Carolina",
        "countryCode": "US",
        "latitude": 34.49457931518555,
        "longitude": -82.70938873291016,
        "type": "CIVIL",
        "zoneId": "America/New_York"
    },
    {
        "iata": "ANE",
        "name": "Angers-Loire Airport",
        "city": "Angers/Marce",
        "subdivision": "Pays-de-la-Loire",
        "countryCode": "FR",
        "latitude": 47.560298919677734,
        "longitude": -0.3122200071811676,
        "type": "CIVIL",
        "zoneId": "Europe/Paris"
    },
    {
        "iata": "ANF",
        "name": "Cerro Moreno Airport",
        "city": "Antofagasta",
        "subdivision": "Antofagasta",
        "countryCode": "CL",
        "latitude": -23.444499969482422,
        "longitude": -70.44509887695312,
        "type": "CIVIL",
        "zoneId": "America/Santiago"
    },
    {
        "iata": "ANG",
        "name": "Angouleme-Brie-Champniers Airport",
        "city": "Angouleme/Brie/Champniers",
        "subdivision": "Nouvelle-Aquitaine",
        "countryCode": "FR",
        "latitude": 45.72919845581055,
        "longitude": 0.2214599996805191,
        "type": "CIVIL",
        "zoneId": "Europe/Paris"
    },
    {
        "iata": "ANI",
        "name": "Aniak Airport",
        "city": "Aniak",
        "subdivision": "Alaska",
        "countryCode": "US",
        "latitude": 61.5814094543457,
        "longitude": -159.54530334472656,
        "type": "CIVIL",
        "zoneId": "America/Anchorage"
    },
    {
        "iata": "ANM",
        "name": "Antsirabato Airport",
        "city": "",
        "subdivision": "Sava",
        "countryCode": "MG",
        "latitude": -14.99940013885498,
        "longitude": 50.3202018737793,
        "type": "CIVIL",
        "zoneId": "Indian/Antananarivo"
    },
    {
        "iata": "ANP",
        "name": "Lee Airport",
        "city": "Annapolis",
        "subdivision": "Maryland",
        "countryCode": "US",
        "latitude": 38.94287872314453,
        "longitude": -76.56839752197266,
        "type": "CIVIL",
        "zoneId": "America/New_York"
    },
    {
        "iata": "ANQ",
        "name": "Tri-State Steuben County Airport",
        "city": "Angola",
        "subdivision": "Indiana",
        "countryCode": "US",
        "latitude": 41.63970184326172,
        "longitude": -85.08348846435547,
        "type": "CIVIL",
        "zoneId": "America/Indiana/Indianapolis"
    },
    {
        "iata": "ANR",
        "name": "Antwerp International Airport (Deurne)",
        "city": "Antwerp",
        "subdivision": "Flanders",
        "countryCode": "BE",
        "latitude": 51.18939971923828,
        "longitude": 4.460279941558838,
        "type": "CIVIL",
        "zoneId": "Europe/Brussels"
    },
    {
        "iata": "ANS",
        "name": "Andahuaylas Airport",
        "city": "Andahuaylas",
        "subdivision": "Apurimac",
        "countryCode": "PE",
        "latitude": -13.706399917602539,
        "longitude": -73.35040283203125,
        "type": "CIVIL",
        "zoneId": "America/Lima"
    },
    {
        "iata": "ANU",
        "name": "V.C. Bird International Airport",
        "city": "St. George",
        "subdivision": "Saint-George",
        "countryCode": "AG",
        "latitude": 17.136699676513672,
        "longitude": -61.792701721191406,
        "type": "CIVIL",
        "zoneId": "America/Antigua"
    },
    {
        "iata": "ANV",
        "name": "Anvik Airport",
        "city": "Anvik",
        "subdivision": "Alaska",
        "countryCode": "US",
        "latitude": 62.64733123779297,
        "longitude": -160.1900634765625,
        "type": "CIVIL",
        "zoneId": "America/Anchorage"
    },
    {
        "iata": "ANW",
        "name": "Ainsworth Regional Airport",
        "city": "Ainsworth",
        "subdivision": "Nebraska",
        "countryCode": "US",
        "latitude": 42.579219818115234,
        "longitude": -99.99297332763672,
        "type": "CIVIL",
        "zoneId": "America/Chicago"
    },
    {
        "iata": "ANX",
        "name": "Andøya Airport",
        "city": "Andenes",
        "subdivision": "Nordland",
        "countryCode": "NO",
        "latitude": 69.2925033569336,
        "longitude": 16.14419937133789,
        "type": "CIVIL",
        "zoneId": "Europe/Oslo"
    },
    {
        "iata": "ANY",
        "name": "Anthony Municipal Airport",
        "city": "Anthony",
        "subdivision": "Kansas",
        "countryCode": "US",
        "latitude": 37.1599006652832,
        "longitude": -98.07952880859375,
        "type": "CIVIL",
        "zoneId": "America/Chicago"
    },
    {
        "iata": "AOC",
        "name": "Altenburg-Nobitz Airport",
        "city": "Altenburg",
        "subdivision": "Thuringia",
        "countryCode": "DE",
        "latitude": 50.98194885253906,
        "longitude": 12.506389617919922,
        "type": "CIVIL",
        "zoneId": "Europe/Berlin"
    },
    {
        "iata": "AOE",
        "name": "Anadolu University Airport",
        "city": "Eskisehir",
        "subdivision": "Eskişehir",
        "countryCode": "TR",
        "latitude": 39.809898376464844,
        "longitude": 30.519399642944336,
        "type": "CIVIL",
        "zoneId": "Europe/Istanbul"
    },
    {
        "iata": "AOG",
        "name": "Anshan Air Base",
        "city": "Anshan",
        "subdivision": "Liaoning",
        "countryCode": "CN",
        "latitude": 41.10530090332031,
        "longitude": 122.85399627685547,
        "type": "CIVIL",
        "zoneId": "Asia/Shanghai"
    },
    {
        "iata": "AOH",
        "name": "Lima Allen County Airport",
        "city": "Lima",
        "subdivision": "Ohio",
        "countryCode": "US",
        "latitude": 40.707481384277344,
        "longitude": -84.0270767211914,
        "type": "CIVIL",
        "zoneId": "America/New_York"
    },
    {
        "iata": "AOI",
        "name": "Ancona / Falconara Airport",
        "city": "Ancona",
        "subdivision": "The Marches",
        "countryCode": "IT",
        "latitude": 43.61629867553711,
        "longitude": 13.362299919128418,
        "type": "CIVIL",
        "zoneId": "Europe/Rome"
    },
    {
        "iata": "AOJ",
        "name": "Aomori Airport",
        "city": "Aomori",
        "subdivision": "Aomori",
        "countryCode": "JP",
        "latitude": 40.73469924926758,
        "longitude": 140.6909942626953,
        "type": "CIVIL",
        "zoneId": "Asia/Tokyo"
    },
    {
        "iata": "AOK",
        "name": "Karpathos Airport",
        "city": "Karpathos Island",
        "subdivision": "South Aegean",
        "countryCode": "GR",
        "latitude": 35.4213981628418,
        "longitude": 27.145999908447266,
        "type": "CIVIL",
        "zoneId": "Europe/Athens"
    },
    {
        "iata": "AOL",
        "name": "Paso De Los Libres Airport",
        "city": "Paso de los Libres",
        "subdivision": "Corrientes",
        "countryCode": "AR",
        "latitude": -29.68939971923828,
        "longitude": -57.152099609375,
        "type": "CIVIL",
        "zoneId": "America/Argentina/Cordoba"
    },
    {
        "iata": "AOO",
        "name": "Altoona/Blair County Airport",
        "city": "Altoona",
        "subdivision": "Pennsylvania",
        "countryCode": "US",
        "latitude": 40.29636001586914,
        "longitude": -78.32003021240234,
        "type": "CIVIL",
        "zoneId": "America/New_York"
    },
    {
        "iata": "AOP",
        "name": "Alferez FAP Alfredo Vladimir Sara Bauer Airport",
        "city": "Andoas",
        "subdivision": "Loreto",
        "countryCode": "PE",
        "latitude": -2.7961299419403076,
        "longitude": -76.46659851074219,
        "type": "CIVIL",
        "zoneId": "America/Lima"
    },
    {
        "iata": "AOR",
        "name": "Sultan Abdul Halim Airport",
        "city": "Alor Satar",
        "subdivision": "",
        "countryCode": "MY",
        "latitude": 6.189670085906982,
        "longitude": 100.39800262451172,
        "type": "CIVIL",
        "zoneId": "Asia/Kuala_Lumpur"
    },
    {
        "iata": "AOT",
        "name": "Aosta Airport",
        "city": "Aosta",
        "subdivision": "Aosta Valley",
        "countryCode": "IT",
        "latitude": 45.73849868774414,
        "longitude": 7.368720054626465,
        "type": "CIVIL",
        "zoneId": "Europe/Rome"
    },
    {
        "iata": "AOU",
        "name": "Attopeu Airport",
        "city": "Attopeu",
        "subdivision": "Attapu",
        "countryCode": "LA",
        "latitude": 14.814720153808594,
        "longitude": 106.82170104980469,
        "type": "CIVIL",
        "zoneId": "Asia/Vientiane"
    },
    {
        "iata": "APA",
        "name": "Centennial Airport",
        "city": "Denver",
        "subdivision": "Colorado",
        "countryCode": "US",
        "latitude": 39.57012176513672,
        "longitude": -104.84928894042969,
        "type": "CIVIL",
        "zoneId": "America/Denver"
    },
    {
        "iata": "APB",
        "name": "Apolo Airport",
        "city": "Apolo",
        "subdivision": "La Paz",
        "countryCode": "BO",
        "latitude": -14.735600471496582,
        "longitude": -68.41190338134766,
        "type": "CIVIL",
        "zoneId": "America/La_Paz"
    },
    {
        "iata": "APC",
        "name": "Napa County Airport",
        "city": "Napa",
        "subdivision": "California",
        "countryCode": "US",
        "latitude": 38.21318817138672,
        "longitude": -122.28069305419922,
        "type": "CIVIL",
        "zoneId": "America/Los_Angeles"
    },
    {
        "iata": "APF",
        "name": "Naples Municipal Airport",
        "city": "Naples",
        "subdivision": "Florida",
        "countryCode": "US",
        "latitude": 26.15243911743164,
        "longitude": -81.77564239501953,
        "type": "CIVIL",
        "zoneId": "America/New_York"
    },
    {
        "iata": "APH",
        "name": "Mary Walker Lz Airport",
        "city": "Bowling Green",
        "subdivision": "Virginia",
        "countryCode": "US",
        "latitude": 38.099998474121094,
        "longitude": -77.30000305175781,
        "type": "CIVIL",
        "zoneId": "America/New_York"
    },
    {
        "iata": "APK",
        "name": "Apataki Airport",
        "city": "Apataki",
        "subdivision": "Iles-Tuamotu-Gambier",
        "countryCode": "PF",
        "latitude": -15.573599815368652,
        "longitude": -146.4149932861328,
        "type": "CIVIL",
        "zoneId": "Pacific/Tahiti"
    },
    {
        "iata": "APL",
        "name": "Nampula Airport",
        "city": "Nampula",
        "subdivision": "Nampula",
        "countryCode": "MZ",
        "latitude": -15.105600357055664,
        "longitude": 39.28179931640625,
        "type": "CIVIL",
        "zoneId": "Africa/Maputo"
    },
    {
        "iata": "APN",
        "name": "Alpena County Regional Airport",
        "city": "Alpena",
        "subdivision": "Michigan",
        "countryCode": "US",
        "latitude": 45.07807922363281,
        "longitude": -83.56031036376953,
        "type": "CIVIL",
        "zoneId": "America/New_York"
    },
    {
        "iata": "APO",
        "name": "Antonio Roldan Betancourt Airport",
        "city": "Carepa",
        "subdivision": "Antioquia",
        "countryCode": "CO",
        "latitude": 7.811960220336914,
        "longitude": -76.71640014648438,
        "type": "CIVIL",
        "zoneId": "America/Bogota"
    },
    {
        "iata": "APQ",
        "name": "Arapiraca Airport",
        "city": "Arapiraca",
        "subdivision": "Alagoas",
        "countryCode": "BR",
        "latitude": -9.775360107421875,
        "longitude": -36.62919998168945,
        "type": "CIVIL",
        "zoneId": "America/Maceio"
    },
    {
        "iata": "APS",
        "name": "Anapolis Airport",
        "city": "Anapolis",
        "subdivision": "Goiás",
        "countryCode": "BR",
        "latitude": -16.362300872802734,
        "longitude": -48.927101135253906,
        "type": "CIVIL",
        "zoneId": "America/Sao_Paulo"
    },
    {
        "iata": "APT",
        "name": "Marion County/Brown Field",
        "city": "Jasper",
        "subdivision": "Tennessee",
        "countryCode": "US",
        "latitude": 35.0606689453125,
        "longitude": -85.58531188964844,
        "type": "CIVIL",
        "zoneId": "America/Chicago"
    },
    {
        "iata": "APU",
        "name": "Apucarana Airport",
        "city": "Apucarana",
        "subdivision": "Paraná",
        "countryCode": "BR",
        "latitude": -23.609500885009766,
        "longitude": -51.384498596191406,
        "type": "CIVIL",
        "zoneId": "America/Sao_Paulo"
    },
    {
        "iata": "APV",
        "name": "Apple Valley Airport",
        "city": "Apple Valley",
        "subdivision": "California",
        "countryCode": "US",
        "latitude": 34.599998474121094,
        "longitude": -117.19999694824219,
        "type": "CIVIL",
        "zoneId": "America/Los_Angeles"
    },
    {
        "iata": "APW",
        "name": "Faleolo International Airport",
        "city": "Apia",
        "subdivision": "A'ana",
        "countryCode": "WS",
        "latitude": -13.829999923706055,
        "longitude": -172.00799560546875,
        "type": "CIVIL",
        "zoneId": "Pacific/Apia"
    },
    {
        "iata": "APX",
        "name": "Arapongas Airport",
        "city": "Arapongas",
        "subdivision": "Paraná",
        "countryCode": "BR",
        "latitude": -23.3528995513916,
        "longitude": -51.49169921875,
        "type": "CIVIL",
        "zoneId": "America/Sao_Paulo"
    },
    {
        "iata": "APZ",
        "name": "Zapala Airport",
        "city": "Zapala",
        "subdivision": "Neuquen",
        "countryCode": "AR",
        "latitude": -38.97549819946289,
        "longitude": -70.11360168457031,
        "type": "CIVIL",
        "zoneId": "America/Argentina/Salta"
    },
    {
        "iata": "AQA",
        "name": "Araraquara Airport",
        "city": "Araraquara",
        "subdivision": "São Paulo",
        "countryCode": "BR",
        "latitude": -21.812000274658203,
        "longitude": -48.132999420166016,
        "type": "CIVIL",
        "zoneId": "America/Sao_Paulo"
    },
    {
        "iata": "AQG",
        "name": "Anqing Airport",
        "city": "Anqing",
        "subdivision": "Anhui",
        "countryCode": "CN",
        "latitude": 30.582199096679688,
        "longitude": 117.05000305175781,
        "type": "CIVIL",
        "zoneId": "Asia/Shanghai"
    },
    {
        "iata": "AQI",
        "name": "Hafr Al Batin Airport",
        "city": "Qaisumah",
        "subdivision": "Eastern Province",
        "countryCode": "SA",
        "latitude": 28.3351993560791,
        "longitude": 46.125099182128906,
        "type": "CIVIL",
        "zoneId": "Asia/Riyadh"
    },
    {
        "iata": "AQJ",
        "name": "Aqaba King Hussein International Airport",
        "city": "Aqaba",
        "subdivision": "Aqaba",
        "countryCode": "JO",
        "latitude": 29.611600875854492,
        "longitude": 35.01810073852539,
        "type": "CIVIL",
        "zoneId": "Asia/Amman"
    },
    {
        "iata": "AQM",
        "name": "Nova Vida Airport",
        "city": "Ariquemes",
        "subdivision": "Rondônia",
        "countryCode": "BR",
        "latitude": -10.178059577941895,
        "longitude": -62.8255615234375,
        "type": "CIVIL",
        "zoneId": "America/Porto_Velho"
    },
    {
        "iata": "AQP",
        "name": "Rodriguez Ballon International Airport",
        "city": "Arequipa",
        "subdivision": "Arequipa",
        "countryCode": "PE",
        "latitude": -16.341100692749023,
        "longitude": -71.58309936523438,
        "type": "CIVIL",
        "zoneId": "America/Lima"
    },
    {
        "iata": "ARA",
        "name": "Acadiana Regional Airport",
        "city": "New Iberia",
        "subdivision": "Louisiana",
        "countryCode": "US",
        "latitude": 30.03775978088379,
        "longitude": -91.88390350341797,
        "type": "CIVIL",
        "zoneId": "America/Chicago"
    },
    {
        "iata": "ARB",
        "name": "Ann Arbor Municipal Airport",
        "city": "Ann Arbor",
        "subdivision": "Michigan",
        "countryCode": "US",
        "latitude": 42.222930908203125,
        "longitude": -83.74571228027344,
        "type": "CIVIL",
        "zoneId": "America/Detroit"
    },
    {
        "iata": "ARC",
        "name": "Arctic Village Airport",
        "city": "Arctic Village",
        "subdivision": "Alaska",
        "countryCode": "US",
        "latitude": 68.11466979980469,
        "longitude": -145.5794219970703,
        "type": "CIVIL",
        "zoneId": "America/Anchorage"
    },
    {
        "iata": "ARD",
        "name": "Mali Airport",
        "city": "Alor Island",
        "subdivision": "East Nusa Tenggara",
        "countryCode": "ID",
        "latitude": -8.132340431213379,
        "longitude": 124.59700012207031,
        "type": "CIVIL",
        "zoneId": "Asia/Makassar"
    },
    {
        "iata": "ARE",
        "name": "Antonio/Nery/Juarbe Pol Airport",
        "city": "Arecibo",
        "subdivision": "Puerto Rico",
        "countryCode": "US",
        "latitude": 18.450899124145508,
        "longitude": -66.67545318603516,
        "type": "CIVIL",
        "zoneId": "America/Puerto_Rico"
    },
    {
        "iata": "ARG",
        "name": "Walnut Ridge Regional Airport",
        "city": "Walnut Ridge",
        "subdivision": "Arkansas",
        "countryCode": "US",
        "latitude": 36.12466812133789,
        "longitude": -90.92510986328125,
        "type": "CIVIL",
        "zoneId": "America/Chicago"
    },
    {
        "iata": "ARH",
        "name": "Talagi Airport",
        "city": "Archangelsk",
        "subdivision": "Arkhangelskaya",
        "countryCode": "RU",
        "latitude": 64.60030364990234,
        "longitude": 40.71670150756836,
        "type": "CIVIL",
        "zoneId": "Europe/Moscow"
    },
    {
        "iata": "ARI",
        "name": "Chacalluta Airport",
        "city": "Arica",
        "subdivision": "Arica-y-Parinacota",
        "countryCode": "CL",
        "latitude": -18.348499298095703,
        "longitude": -70.33869934082031,
        "type": "CIVIL",
        "zoneId": "America/Santiago"
    },
    {
        "iata": "ARK",
        "name": "Arusha Airport",
        "city": "Arusha",
        "subdivision": "Arusha",
        "countryCode": "TZ",
        "latitude": -3.3677899837493896,
        "longitude": 36.63330078125,
        "type": "CIVIL",
        "zoneId": "Africa/Dar_es_Salaam"
    },
    {
        "iata": "ARM",
        "name": "Armidale Airport",
        "city": "Armidale",
        "subdivision": "New South Wales",
        "countryCode": "AU",
        "latitude": -30.528099060058594,
        "longitude": 151.61700439453125,
        "type": "CIVIL",
        "zoneId": "Australia/Sydney"
    },
    {
        "iata": "ARN",
        "name": "Stockholm-Arlanda Airport",
        "city": "Stockholm",
        "subdivision": "Stockholm",
        "countryCode": "SE",
        "latitude": 59.65190124511719,
        "longitude": 17.91860008239746,
        "type": "CIVIL",
        "zoneId": "Europe/Stockholm"
    },
    {
        "iata": "ARR",
        "name": "D. Casimiro Szlapelis Airport",
        "city": "Alto Rio Senguerr",
        "subdivision": "Chubut",
        "countryCode": "AR",
        "latitude": -45.01359939575195,
        "longitude": -70.81220245361328,
        "type": "CIVIL",
        "zoneId": "America/Argentina/Catamarca"
    },
    {
        "iata": "ART",
        "name": "Watertown International Airport",
        "city": "Watertown",
        "subdivision": "New York",
        "countryCode": "US",
        "latitude": 43.99182891845703,
        "longitude": -76.01941680908203,
        "type": "CIVIL",
        "zoneId": "America/New_York"
    },
    {
        "iata": "ARU",
        "name": "Aracatuba Airport",
        "city": "Aracatuba",
        "subdivision": "São Paulo",
        "countryCode": "BR",
        "latitude": -21.141300201416016,
        "longitude": -50.42470169067383,
        "type": "CIVIL",
        "zoneId": "America/Sao_Paulo"
    },
    {
        "iata": "ARV",
        "name": "Lakeland/Noble F Lee Memorial Field",
        "city": "Minocqua-Woodruff",
        "subdivision": "Wisconsin",
        "countryCode": "US",
        "latitude": 45.927921295166016,
        "longitude": -89.73094177246094,
        "type": "CIVIL",
        "zoneId": "America/Chicago"
    },
    {
        "iata": "ARW",
        "name": "Arad International Airport",
        "city": "Arad",
        "subdivision": "Arad",
        "countryCode": "RO",
        "latitude": 46.17660140991211,
        "longitude": 21.261999130249023,
        "type": "CIVIL",
        "zoneId": "Europe/Bucharest"
    },
    {
        "iata": "ARY",
        "name": "Ararat Airport",
        "city": "",
        "subdivision": "Victoria",
        "countryCode": "AU",
        "latitude": -37.30939865112305,
        "longitude": 142.98899841308594,
        "type": "CIVIL",
        "zoneId": "Australia/Melbourne"
    },
    {
        "iata": "ARZ",
        "name": "N'zeto Airport",
        "city": "N'zeto",
        "subdivision": "Zaire",
        "countryCode": "AO",
        "latitude": -7.259439945220947,
        "longitude": 12.863100051879883,
        "type": "CIVIL",
        "zoneId": "Africa/Luanda"
    },
    {
        "iata": "ASA",
        "name": "Assab International Airport",
        "city": "Assab",
        "subdivision": "Southern Red Sea",
        "countryCode": "ER",
        "latitude": 13.071800231933594,
        "longitude": 42.64500045776367,
        "type": "CIVIL",
        "zoneId": "Africa/Asmara"
    },
    {
        "iata": "ASB",
        "name": "Ashgabat Airport",
        "city": "Ashgabat",
        "subdivision": "Ashgabat",
        "countryCode": "TM",
        "latitude": 37.98680114746094,
        "longitude": 58.361000061035156,
        "type": "CIVIL",
        "zoneId": "Asia/Ashgabat"
    },
    {
        "iata": "ASD",
        "name": "Andros Town Airport",
        "city": "",
        "subdivision": "North Andros",
        "countryCode": "BS",
        "latitude": 24.697900772094727,
        "longitude": -77.79560089111328,
        "type": "CIVIL",
        "zoneId": "America/Nassau"
    },
    {
        "iata": "ASE",
        "name": "Aspen-Pitkin County/Sardy Field",
        "city": "Aspen",
        "subdivision": "Colorado",
        "countryCode": "US",
        "latitude": 39.22188949584961,
        "longitude": -106.86821746826172,
        "type": "CIVIL",
        "zoneId": "America/Denver"
    },
    {
        "iata": "ASF",
        "name": "Astrakhan Airport",
        "city": "Astrakhan",
        "subdivision": "Astrakhan",
        "countryCode": "RU",
        "latitude": 46.28329849243164,
        "longitude": 48.00630187988281,
        "type": "CIVIL",
        "zoneId": "Europe/Astrakhan"
    },
    {
        "iata": "ASG",
        "name": "Ashburton Aerodrome",
        "city": "",
        "subdivision": "Canterbury",
        "countryCode": "NZ",
        "latitude": -43.90330123901367,
        "longitude": 171.7969970703125,
        "type": "CIVIL",
        "zoneId": "Pacific/Auckland"
    },
    {
        "iata": "ASH",
        "name": "Boire Field",
        "city": "Nashua",
        "subdivision": "New Hampshire",
        "countryCode": "US",
        "latitude": 42.78240966796875,
        "longitude": -71.51409149169922,
        "type": "CIVIL",
        "zoneId": "America/New_York"
    },
    {
        "iata": "ASJ",
        "name": "Amami Airport",
        "city": "Amami",
        "subdivision": "Kagoshima",
        "countryCode": "JP",
        "latitude": 28.430599212646484,
        "longitude": 129.71299743652344,
        "type": "CIVIL",
        "zoneId": "Asia/Tokyo"
    },
    {
        "iata": "ASK",
        "name": "Yamoussoukro Airport",
        "city": "Yamoussoukro",
        "subdivision": "Yamoussoukro-Autonomous-District",
        "countryCode": "CI",
        "latitude": 6.903170108795166,
        "longitude": -5.365580081939697,
        "type": "CIVIL",
        "zoneId": "Africa/Abidjan"
    },
    {
        "iata": "ASL",
        "name": "Harrison County Airport",
        "city": "Marshall",
        "subdivision": "Texas",
        "countryCode": "US",
        "latitude": 32.52050018310547,
        "longitude": -94.30777740478516,
        "type": "CIVIL",
        "zoneId": "America/Chicago"
    },
    {
        "iata": "ASM",
        "name": "Asmara International Airport",
        "city": "Asmara",
        "subdivision": "Maekel",
        "countryCode": "ER",
        "latitude": 15.291899681091309,
        "longitude": 38.910701751708984,
        "type": "CIVIL",
        "zoneId": "Africa/Asmara"
    },
    {
        "iata": "ASN",
        "name": "Talladega Municipal Airport",
        "city": "Talladega",
        "subdivision": "Alabama",
        "countryCode": "US",
        "latitude": 33.56949996948242,
        "longitude": -86.05120086669922,
        "type": "CIVIL",
        "zoneId": "America/Chicago"
    },
    {
        "iata": "ASO",
        "name": "Asosa Airport",
        "city": "Asosa",
        "subdivision": "Binshangul-Gumuz",
        "countryCode": "ET",
        "latitude": 10.018500328063965,
        "longitude": 34.586299896240234,
        "type": "CIVIL",
        "zoneId": "Africa/Addis_Ababa"
    },
    {
        "iata": "ASP",
        "name": "Alice Springs Airport",
        "city": "Alice Springs",
        "subdivision": "Northern Territory",
        "countryCode": "AU",
        "latitude": -23.806699752807617,
        "longitude": 133.90199279785156,
        "type": "CIVIL",
        "zoneId": "Australia/Darwin"
    },
    {
        "iata": "ASR",
        "name": "Kayseri Erkilet Airport",
        "city": "Kayseri",
        "subdivision": "Kayseri",
        "countryCode": "TR",
        "latitude": 38.77040100097656,
        "longitude": 35.495399475097656,
        "type": "CIVIL",
        "zoneId": "Europe/Istanbul"
    },
    {
        "iata": "ASS",
        "name": "Arathusa Safari Lodge Airport",
        "city": "Arathusa",
        "subdivision": "Mpumalanga",
        "countryCode": "ZA",
        "latitude": -24.744169235229492,
        "longitude": 31.522499084472656,
        "type": "CIVIL",
        "zoneId": "Africa/Johannesburg"
    },
    {
        "iata": "AST",
        "name": "Astoria Regional Airport",
        "city": "Astoria",
        "subdivision": "Oregon",
        "countryCode": "US",
        "latitude": 46.20000076293945,
        "longitude": -123.9000015258789,
        "type": "CIVIL",
        "zoneId": "America/Los_Angeles"
    },
    {
        "iata": "ASU",
        "name": "Silvio Pettirossi International Airport",
        "city": "Asuncion",
        "subdivision": "Central",
        "countryCode": "PY",
        "latitude": -25.239999771118164,
        "longitude": -57.52000045776367,
        "type": "CIVIL",
        "zoneId": "America/Asuncion"
    },
    {
        "iata": "ASV",
        "name": "Amboseli Airport",
        "city": "Amboseli National Park",
        "subdivision": "Kajiado",
        "countryCode": "KE",
        "latitude": -2.645050048828125,
        "longitude": 37.25310134887695,
        "type": "CIVIL",
        "zoneId": "Africa/Nairobi"
    },
    {
        "iata": "ASW",
        "name": "Aswan International Airport",
        "city": "Aswan",
        "subdivision": "Aswan",
        "countryCode": "EG",
        "latitude": 23.964399337768555,
        "longitude": 32.81999969482422,
        "type": "CIVIL",
        "zoneId": "Africa/Cairo"
    },
    {
        "iata": "ATA",
        "name": "Comandante FAP German Arias Graziani Airport",
        "city": "Anta",
        "subdivision": "Ancash",
        "countryCode": "PE",
        "latitude": -9.347439765930176,
        "longitude": -77.59839630126953,
        "type": "CIVIL",
        "zoneId": "America/Lima"
    },
    {
        "iata": "ATB",
        "name": "Atbara Airport",
        "city": "Atbara",
        "subdivision": "",
        "countryCode": "SD",
        "latitude": 17.71034049987793,
        "longitude": 34.0570182800293,
        "type": "CIVIL",
        "zoneId": "Africa/Khartoum"
    },
    {
        "iata": "ATC",
        "name": "Arthur's Town Airport",
        "city": "Arthur's Town",
        "subdivision": "Cat-Island",
        "countryCode": "BS",
        "latitude": 24.6294002532959,
        "longitude": -75.67379760742188,
        "type": "CIVIL",
        "zoneId": "America/Nassau"
    },
    {
        "iata": "ATD",
        "name": "Uru Harbour Airport",
        "city": "Atoifi",
        "subdivision": "",
        "countryCode": "SB",
        "latitude": -8.873330116271973,
        "longitude": 161.01100158691406,
        "type": "CIVIL",
        "zoneId": "Pacific/Guadalcanal"
    },
    {
        "iata": "ATE",
        "name": "Antlers Municipal Airport",
        "city": "Antlers",
        "subdivision": "Oklahoma",
        "countryCode": "US",
        "latitude": 34.19356918334961,
        "longitude": -95.64985656738281,
        "type": "CIVIL",
        "zoneId": "America/Chicago"
    },
    {
        "iata": "ATF",
        "name": "Chachoan Airport",
        "city": "Ambato",
        "subdivision": "Tungurahua",
        "countryCode": "EC",
        "latitude": -1.2120699882507324,
        "longitude": -78.57460021972656,
        "type": "CIVIL",
        "zoneId": "America/Guayaquil"
    },
    {
        "iata": "ATG",
        "name": "Teniente General Gerardo Perez Pinedo Airport",
        "city": "Atalaya",
        "subdivision": "Junin",
        "countryCode": "PE",
        "latitude": -10.729100227355957,
        "longitude": -73.7665023803711,
        "type": "CIVIL",
        "zoneId": "America/Lima"
    },